nombre,rubro,direccion,telefono,email,instagram,facebook,lat,lon
Aca Villa Allende,fuel,"Avenida Goycoechea 1169, Villa Allende",+54 3543 43 7080,,,,-31.2993919,-64.2880263
Axion,fuel,"Avenida Goycoechea 1235, Villa Allende",,,,,-31.299809,-64.2875463
YPF,fuel,,+54 3547 42 1791,,,,-31.6585513,-64.4274168
Shell Anisacae,fuel,,+54 3547 49 4324,,,,-31.7208831,-64.4033434
Shell,fuel,"Avenida Sarmiento 299, Alta Gracia",+54 3547 42 1207,,,,-31.6559896,-64.437926
Shell,fuel,,,,,,-31.6510487,-64.4080818
Shell,convenience,"Avenida San Martín 1109, Villa Carlos Paz",+54 3541 42 6180,,,,-31.413387,-64.4854785
Axion,fuel,,,,,,-31.4382276,-64.5012049
Gomería,tyres,,,,,,-31.4247427,-64.4950076
San Expreso,cafe,,,,,,-31.7206736,-65.0041962
Puma,fuel,,,,,,-31.9266207,-63.6712859
YPF,fuel,"Avenida San Martín, San José de la Dormida",,,,,-30.3567038,-63.9415856
Jemagas,fuel,,,,,,-30.9862959,-64.0889448
YPF El Cruce,fuel,,,,,,-30.9777199,-64.08457
Shell,fuel,"Avenida Monseñor Pablo Cabrera 4822, Córdoba",,,,,-31.3597513,-64.2034084
YPF,fuel,Avenida Monseñor Pablo Cabrera,,,,,-31.3855986,-64.2061702
Puma,fuel,"Ruta Nacional 1V09, Bell Ville",+54 3537 41 2143,,,,-32.6101854,-62.6906993
GNC Di Marco,fuel,,,,,,-32.6091475,-62.6874913
YPF,fuel,"Juan Domingo Perón 471, Embalse",+54 3571 48 5225,,,,-32.2009086,-64.4029841
WICO,fuel,,,,,,-33.1084102,-64.3393633
Guareschi y Asociados (YPF),fuel,"San Juan 1001, Villa María",+54 353 453 5803,,,,-32.4088151,-63.2471507
Estación de Servicio Estilo,fuel,,,,,,-32.2049325,-63.1638098
MC Combustible,fuel,"Boulevard Buenos Aires, La Playosa",,,,,-32.1024316,-63.0342649
Bandera Blanca,fuel,,,,,,-34.1266812,-63.4015996
Mutual de Taxi,pharmacy,Avenida Los Sauces 400,,,,,-31.421387,-64.518947
Grimberg,pharmacy,,,,,,-31.4189078,-64.5055664
Vivero El Ceibo,garden centre,,,,,,-31.9864304,-64.5556995
Pizza UGIS,fast food,,,,,,-32.4147904,-63.2318417
Vea,supermarket,,,,,,-31.4240234,-64.1477041
Hipermercado La Anonima,supermarket,,,,,,-31.43437,-64.1427319
Del Sol,chemist,Obispo Oro,,,,,-31.4255224,-64.1834099
Yabale,pharmacy,,,,,,-30.8594166,-64.5258866
Strega,restaurant,,,,,,-31.4234458,-64.1813552
Milanesas del Mariscal,restaurant,,,,,,-31.4239416,-64.1808032
Saint Andrews,bar,,,,,,-31.4227851,-64.1843845
Bonanza,bar,,,,,,-31.422657,-64.1847547
Grido,ice cream,,,,,,-31.4200199,-64.1873361
Mostachis,fast food,,,,,,-31.420691,-64.186143
Las mejores del mundo,alcohol,,,,,,-31.420561,-64.186643
Equus,video,,,,,,-31.42355,-64.181043
Electronia,computer,,,,,,-31.423609,-64.181717
Campestre,restaurant,,,,,,-31.423529,-64.181965
Disco,supermarket,Avenida José Manuel Estrada 66,+54 351 433-3004,,,,-31.4276672,-64.1880643
Del Pilar,bakery,,,,,,-31.427521,-64.1875509
Pafua,bakery,,,,,,-31.427662,-64.183279
Caseratto,ice cream,,,,,,-31.4279691,-64.1869617
icecream,cafe,,,,,,-31.423693,-64.1814732
Disco,supermarket,Ituzaingó 701,+54 351 433-3000,,,,-31.4253238,-64.1847724
Nueva Córdoba,pharmacy,,,,,,-31.423908,-64.1885703
Buenos Días,supermarket,,,,,,-31.4223342,-64.1885238
Aquarius,pharmacy,Avenida Vélez Sarsfield,,,,,-31.423868,-64.190674
Luis Darío garcia,doctors,,,,,,-31.423431,-64.189674
Del sanatorio,pharmacy,,,,,,-31.4247533,-64.1868736
Ecco Emergencia y prevencion,pharmacy,Boulevard Arturo Illia 235,,,,,-31.4215463,-64.1827248
Buenos Aires,pharmacy,,,,,,-31.4220068,-64.1834289
Vermouth,pharmacy,,,,,,-31.422963,-64.193537
Longo,doctors,,,,,,-31.423544,-64.191413
Cipe,doctors,Avenida Vélez Sarsfield,,,,,-31.423288,-64.190461
McDonald's,fast food,,,,,,-31.419703,-64.1882399
Burger King,fast food,,,,,,-31.4195337,-64.1883419
Axion,fuel,"Avenida del Libertador General San Martín 1980, Alta Gracia",+54 3547 42 1137,,,,-31.6586853,-64.4099808
Parrilla Los Morteritos,restaurant,,,,,,-31.7128469,-64.4041088
Bonafide,cafe,,,,,,-31.9457575,-65.1902377
Don Adolfo,restaurant,,,,,,-31.9443146,-65.1908854
Crillón,ice cream,,,,,,-31.9453141,-65.1911734
Amadeus,cafe,,,,,,-31.9450249,-65.1894014
Milac,ice cream,,,,,,-31.9443427,-65.1900535
Borocco,cafe,,,,,,-31.4080716,-64.1890037
Tarjeta Naranja,oficina: yes,,,,,,-31.1671755,-64.3218928
Valig,supermarket,,,,,,-31.174037,-64.3116256
Wilson,pharmacy,,,,,,-31.2986782,-64.2892935
La Estación,cafe,,,,,,-31.2572774,-64.2992117
Marvill,convenience,,,,,,-31.1710275,-64.3155671
El Titano,convenience,,,,,,-31.1774057,-64.3104299
Todo Suspensión,car parts,Avenida Goycoechea 1731,+54 3543 43 6565,,,,-31.3034618,-64.2836337
Influencias,pub,,,,,,-31.4184512,-64.1912636
Marconi,restaurant,,,,,,-31.4378334,-64.1920693
Bongó Club Saldan,pub,,,,,,-31.3071929,-64.3113584
Bar El Bajo,cafe,,,,,,-31.4104474,-64.4944686
ECO,supermarket,,,,,,-31.7961801,-65.0037619
La Casa De Lucio,restaurant,,,,,,-31.8086597,-65.0022347
Nueva del Pueblo,pharmacy,,,,,,-31.9194354,-64.5761637
Dulzuras Jade,cafe,"Avenida San Martín, Los Reartes",+54 3546 450081,,,,-31.9231041,-64.5778799
YPF,fuel,"Ruta Nacional 158, Las Varillas",+54 3533 42 2357,,,,-31.8681398,-62.7093241
El Sotano,hardware,,+54 351 4256819,,,,-31.413131,-64.1811669
El Sotano,hardware,Rivadavia 269,+54 351 4239651 ; +54 351 4272772,,,,-31.4134921,-64.1815864
Supermercado La Anonima Poeta Lugones,supermarket,,,,,,-31.3637796,-64.2161763
Mariachi,restaurant,,,,,,-31.4312169,-64.2289705
Supermercado de la Cooperativa Ganadera,supermarket,San Martín,,,,,-31.0145874,-62.0634355
Farmacia Ambroggio Ghersi,pharmacy,"San Martín 344, Porteña",,,,,-31.0143411,-62.0647222
Mario Esterlizi Servicios de Viajes,car rental,,,,,,-33.278616,-62.1881555
Zvlu Bar,pub,Alvear 740,,,,,-33.1232755,-64.350549
EL´A,pub,,,,,,-31.6502464,-63.9100014
ONDA 22,pub,,,,,,-31.6522853,-63.9100561
El Ruedo,bar,,,,,,-31.416547,-64.1858508
Puma,fuel,Duarte Quirós,,,,,-31.414701,-64.2005831
YPF,fuel,"Jerónimo del Barco, Villa del Rosario",,,,,-31.5630187,-63.54465
Shell,fuel,"Avenida Vélez Sarsfield 1732, Córdoba",,,,,-31.4349197,-64.1952676
Bar Serrano,bar,,,,,,-30.9593222,-64.2786886
Puesto Roca,restaurant,,,,,,-30.9593256,-64.2719173
Axion,fuel,"Avenida 25 de Mayo, Porteña",,,,,-31.0099902,-62.0670611
Ramos Generales Algañaraz,convenience,,,,,,-30.098258,-63.9321005
Autoservicio Don Licho,convenience,,,,,,-32.0261471,-65.030339
Las Violetas,restaurant,,,,,,-32.0294313,-65.0099978
Rio Bikes,bicycle,Avenida San Martín 5906,,,,,-31.1600293,-64.3193834
Disco,supermarket,Avenida San Martín 5259,+54 351 493-8300,,,,-31.1652514,-64.3221458
Gomeria,car repair,,,,,,-30.8549062,-64.9973399
Nueva Farmacia Del Valle,pharmacy,"Avenida San Martín 390, Villa del Dique",+54 3546 49 7840,,,,-32.1719578,-64.4501735
Cooperativa de Obras y Servicios Públicos,oficina: association,,,,,,-32.1766074,-64.4553234
Arias,supermarket,,,,,,-32.1714889,-64.4499912
Más,supermarket,,,,,,-32.1765989,-64.4525099
Panadería Mónica,bakery,,,,,,-32.174065,-64.4534784
"Puerto del Lago - Alfajores, chocolates y pasteles caseros",confectionery,,,,,,-32.1785238,-64.4496697
Eg3,fuel,,,,,,-31.4852223,-64.5645623
Parador El Condor,restaurant,,,,,,-31.6094322,-64.7583203
Verduleria San José,greengrocer,,+54 351 203 4445,,,,-31.8022467,-64.4176455
Panadería Dulce Catalina,bakery,"Avenida Cavaiani de Osuna, José de la Quintana",+54 9 3547 50 5420,,,,-31.8032873,-64.4178184
La Taba,convenience,"Ruta Provincial E56, José de la Quintana",,,,,-31.8063841,-64.403786
Kiosko/Librería Miner´s boys,kiosk,"Avenida Gobernador Cárcano, José de la Quintana",,,,,-31.8027063,-64.4130055
Los Nietos de Pepe,convenience,,,,,,-31.8033843,-64.4187233
"Dietética, pescados y mariscos",yes,,,,,,-31.8025447,-64.4171246
Farmacia Estrella,pharmacy,,,,,,-31.362915,-64.2046139
Supermercado chino,supermarket,,,,,,-31.3637075,-64.2042116
Villa Nueva II,pharmacy,,,,,,-32.4350464,-63.2483721
La Yema de ORO,restaurant,9 de Julio 520,+54 3548 42 2125,,,,-31.0899375,-64.4811409
Gaynor,restaurant,,,,,,-31.8450946,-64.954482
Dispensario Médico Municipal,doctors,"General Alvear, Porteña",+54 (3564) 45-0100/45-1349,,,,-31.0094924,-62.0694683
Porteña,pharmacy,,,,,,-31.0146142,-62.0632456
Fábrica de Alfajores Estancia El Rosario,confectionery,,,,,,-30.9949323,-64.4599955
El Almacén,restaurant,,,,,,-31.0002442,-64.4775239
Puntopc,gift,,,,,,-31.1722274,-64.3145354
La Ñatita,bar,,,,,,-32.8540014,-63.5543606
Bar Estilos,bar,,,,,,-32.6112152,-62.6967493
La Tratoria de Luigi,restaurant,,,,,,-32.6936866,-64.7209452
Supermercado La Huerta,convenience,,,,,,-32.6936911,-64.7212563
La Loma,restaurant,,,,,,-32.6941641,-64.7213214
Poli Rubros Sabri,convenience,,,,,,-32.6932983,-64.721267
Lo de Miguel,restaurant,,,,,,-32.6949235,-64.7210793
Mercadito Gaby,convenience,,,,,,-32.691199,-64.7192017
Mercado Central,convenience,,,,,,-32.6938897,-64.7213046
Comedor,restaurant,,,,,,-31.3631015,-64.2759533
Black sheep,alcohol,,,,,,-31.4242465,-64.1864535
Patio de Comidas Hiper Libertad,restaurant,,,,,,-31.3646233,-64.2167644
Renault Minuto,car repair,,,,,,-31.3645633,-64.2180746
mini Super,supermarket,Javier Lascano Colodrero 2779,,minisuperas@gmail.com,,,-31.3635585,-64.2089739
Hipershop,supermarket,,,,,,-30.9914045,-64.0962172
Nueva Rosa,pharmacy,,,,,,-31.0056873,-64.0796796
Super AR,supermarket,,,,,,-31.0078041,-64.077177
Panadería Castillo,bakery,,,,,,-31.0134222,-64.0731834
Frutos de Caroya,greengrocer,,,,,,-31.0200165,-64.0633727
Italiana,pharmacy,,,,,,-34.1241194,-63.3884596
Santa Isabel,pharmacy,,,,,,-34.1263221,-63.3891448
Cordiez,supermarket,"Avenida Vélez Sarsfield 334, Córdoba",,,,,-31.4190456,-64.1884465
Lubricentro Mao,car repair,,,,,,-31.0223825,-64.0609198
Casa Vil-Mar,convenience,"Calle 48 - Luis D'Olivo 4002, Colonia Caroya",,,,,-31.0254944,-64.0645661
Havanna,cafe,,,,,,-31.3670635,-64.2185894
Dinosaurio,supermarket,,,,,,-31.3675422,-64.2186006
Disco,supermarket,Ingeniero Olmos 33,+54 352 542-4206,,,,-30.9803706,-64.0959322
Rigoletto Café del Teatro,cafe,,,,,,-32.4147624,-63.2419063
Estación de Servicio Vélez Sarsfield,fuel,Boulevard Vélez Sarsfield 1108,+54 353 452 2540,,,,-32.4044952,-63.2490942
Cetrogar,electronics,,,,,,-32.4120098,-63.2426135
Telecom S.A.,oficina: telecommunication,José Ingenieros 151,,,,,-32.4089463,-63.2439451
EPEC,oficina: government,25 de Mayo 7,,,,,-32.4098716,-63.2409787
YPF,fuel,"Avenida Ciudad de Valparaíso 2812, Córdoba",+54 351 461 7222,,,,-31.4441449,-64.186919
Supermercados Top,supermarket,Tucumán 1331,,,,,-32.4131834,-63.2376255
Alto de Los Gigantes,restaurant,,,,,,-31.3950386,-64.7487737
Axion,fuel,Avenida Monseñor Pablo Cabrera,,,,,-31.3765172,-64.2064714
Farmaservis,pharmacy,Bulevar Los Granaderos,,,,,-31.3801072,-64.2018618
Zárate,pharmacy,,,,,,-31.3757494,-64.2064792
Lave-Rap,laundry,,,,,,-31.3781539,-64.2068279
Don Paco,butcher,,,,,,-31.3902157,-64.2049447
Shell,fuel,"Bulevar Los Granaderos, Córdoba",,,,,-31.3826928,-64.1985816
Farmacias ECONOMED,pharmacy,Bulevar Los Granaderos,,,,,-31.3823077,-64.1991835
Embragues Córdoba,car repair,,,,,,-31.4056268,-64.1891843
Farmacity,pharmacy,,,,,,-31.4004094,-64.1973704
Al Estilo Criollo,restaurant,,,,,,-33.1176209,-64.3498635
Atomo,supermarket,,,,,,-33.1084156,-64.3400359
Bio-Imagenes Del Sud,clinic,,,,,,-33.1286503,-64.3520982
Puma,fuel,"Ruta Nacional 7 Libertador General San Martín, Vicuña Mackenna",,,,,-33.9296191,-64.4046585
Comedor El Camionero,restaurant,,,,,,-33.9302015,-64.4035506
ComedorReykos,restaurant,,,,,,-33.929193,-64.3943453
Comedor LaTerminal,restaurant,,,,,,-33.9172272,-64.3908125
Delicatesen,supermarket,,,,,,-33.1289649,-64.3511172
Junior B,restaurant,,,,,,-33.1238437,-64.3506789
DistribuidoraPi,supermarket,,,,,,-33.1173205,-64.3739176
El Viejo Almacén,restaurant,,,,,,-33.1257963,-64.3524384
Galeria Del Cine,supermarket,,,,,,-33.1243188,-64.3493136
Nogales,fuel,,,,,,-33.1596945,-64.3687458
Pompeya,restaurant,,,,,,-33.1163291,-64.347675
LaRuralRestaura,restaurant,,,,,,-33.1594419,-64.3581676
Musimundo,supermarket,,,,,,-33.1240329,-64.3473449
A mi gusto,restaurant,"Rivadavia 345, Río Cuarto",,,,,-33.1260379,-64.3453483
PizzeriaRoma,restaurant,,,,,,-33.1286929,-64.3488108
Restaurant DelJo,restaurant,Constitución 1000,,,,,-33.1262474,-64.3504389
RestobarSabores,restaurant,,,,,,-33.9123702,-64.3890667
pilca,pub,,,,,,-33.1227791,-64.3501129
SuperVea,supermarket,,,,,,-33.1094027,-64.3419027
Supermercado Grassano,supermarket,,,,,,-33.1364272,-64.3454686
SuspenSur,car repair,,,,,,-33.1510091,-64.3582749
YPF,fuel,"Avenida Carlos S. Yde, Vicuña Mackenna",+54 3583 42 3374,,,,-33.9247434,-64.3924519
Gulf,fuel,Avenida Leandro N. Alem,,,,,-32.4109648,-63.245327
Gulf,fuel,"Avenida Leandro N. Alem 999, Villa María",,,,,-32.4025493,-63.2530965
Farmacia FarmaShop,pharmacy,"Comercio 1399, Villa Nueva",+54 353 491 0820,,,,-32.4365929,-63.2515011
Teobald,pharmacy,,,,,,-32.4326706,-63.2503295
Grido,ice cream,"Catamarca 1499, Villa María",+54 353 452 9043,,,,-32.4063582,-63.2409579
Parrilla Lupo,restaurant,Bulevar España 554,,,,,-32.4029732,-63.2434845
Oil,fuel,,+54 353 491 8631,,,,-32.424524,-63.2439303
Pizza Mía,fast food,,,,,,-32.4108178,-63.2403093
Restaurante Vincent,restaurant,Corrientes 550,,,,,-32.4156547,-63.248055
Shell,fuel,"San Luis 499, Villa María",+54 353 452 1107,,,,-32.4195734,-63.2453547
Shell,fuel,"Avenida Presidente Juan Domingo Perón 1002, Villa Maria",,,,,-32.4172914,-63.2296838
Shell,fuel,"Santa Fe 113, Villa María",+54 353 452 3820,,,,-32.41014,-63.24464
Estacion de Servicio Malvinas (Sol),fuel,,+54 353 491 9731,,,,-32.4392736,-63.2484944
Restaurant Tiro Federal,restaurant,"Enrique Gallo, Morteros",,,,,-30.7042938,-62.0107396
Taller Balbusso,car repair,,,,,,-30.9309137,-64.4981937
Despensa Alemax,convenience,,,,,,-30.9288845,-64.4992117
Parrilla Del Valle,restaurant,,,,,,-30.9276926,-64.5004574
Casa De Comidas,fast food,,,,,,-30.926174,-64.5007203
Restaurantes,restaurant,,,,,,-30.9361823,-64.4936124
Tragos,bar,,,,,,-30.936394,-64.4932477
Regionales,gift,,,,,,-30.9363434,-64.4933496
Cafetería Comedor,restaurant,,,,,,-30.923406,-64.5028218
Venta De Dulces,kiosk,,,,,,-30.9310794,-64.4978932
El Cruce,restaurant,,,,,,-31.31665,-64.4617854
DVDS Noanet,music,,,,,,-31.3157702,-64.4617827
El Pollaso,restaurant,,,,,,-31.3160039,-64.4621099
La Zendaya,restaurant,Antonio Del Viso,,,,,-31.3160108,-64.4635958
Videoclub,music,,,,,,-31.3139544,-64.4613253
Kiosco Florida,kiosk,,,,,,-31.3136909,-64.4612046
El Refugio,restaurant,,,,,,-31.313393,-64.4618993
Churros Express,bakery,,,,,,-31.345218,-64.4627703
Piaccere,convenience,,,,,,-31.3658737,-64.2792013
Ones,convenience,Avenida Mahatma Ghandi,,,,,-31.390069,-64.2696369
Trezzeri,bakery,"Avenida Mahatma Ghandi 314, Córdoba",,,,,-31.3857078,-64.2690742
Los Kane,bakery,,,,,,-31.3817662,-64.2694689
Alejandra,hairdresser,,,,,,-31.3818453,-64.269625
Lucho,butcher,Nicolás Mascardi,,,,,-31.3865253,-64.2755049
Don Bosco,pharmacy,Avenida Mahatma Ghandi,,,,,-31.3851331,-64.2690863
La 12,pub,,,,,,-30.7753742,-64.5443582
Almacén,convenience,,,,,,-30.9226593,-64.5351261
Gómez,convenience,,,,,,-30.7751878,-64.5443764
E&G Technology,electronics repair,Ruta Provincial E56,+54 3547 65 4709,,,,-31.8073207,-64.4035287
Carnicería Palacios,butcher,,,,,,-31.8251197,-64.3865268
Ferretería Corralón La Herradura,hardware,,+54 9 351 209-1711 / 351-2021629,,,,-31.8195762,-64.3927081
Parrilla Hueso´s,restaurant,Villa Giardino,,,,,-31.0509425,-64.4999482
Confitería La Terminal,restaurant,Villa Giardino,,,,,-31.0503213,-64.4991427
Mármoles Dinatale,tiles,Villa Giardino,,,,,-31.051077,-64.4983127
Conte Motos,motorcycle,,,,,,-31.4089549,-64.1826992
Comedor,deli,"Miguel Lillo, Córdoba",,,,,-31.3693466,-64.2620955
Dapsa,fuel,,,,,,-33.0410586,-63.5118038
Motorama,motorcycle,Avenida Cárcano,,,,,-31.4231238,-64.4956071
Colorshop,paint,,,,,,-31.7283829,-65.0056982
Becerra,supermarket,Avenida Ojo de Agua 356,,,,,-31.9800053,-64.5531476
Communication Partner SRL,oficina: company,,,,,,-31.4124535,-64.1732282
Bethel,yes,,,,,,-31.2251733,-64.3191459
Venta De Hielo,yes,,,,,,-31.3287899,-64.4529186
Manchester,clothes,,,,,,-31.0932746,-64.4820735
Disquería,music,,,,,,-31.0931506,-64.4819984
Bitácora Insumos,hifi,,,,,,-31.0937521,-64.4819338
Estampados,clothes,,,,,,-31.0932217,-64.4822772
Paseo Del Centro,clothes,,,,,,-31.0931329,-64.4823833
Del Super,pharmacy,,,,,,-31.092937,-64.4830123
El Pastorcito,bakery,Huerta Grande,,,,,-31.075856,-64.4926329
Revistas,kiosk,,,,,,-31.4149582,-64.1707771
Choripanes,kiosk,,,,,,-31.4146763,-64.1697372
Cafeto,cafe,,,,,,-31.3664707,-64.2189066
Parrilla,restaurant,,,,,,-31.0320421,-64.504654
Casa Blanca,restaurant,,,,,,-31.4388406,-64.1877888
Bar CEICIN,restaurant,,,,,,-31.4355706,-64.1939457
El Mirador,restaurant,,,,,,-32.0275477,-65.0065864
Complejo El Mirador,gift,,,,,,-30.9237867,-64.5065296
Peluquería Giorgio,hairdresser,"Igualdad 69, Córdoba",+543514229576,,,,-31.4077822,-64.1815722
Peperina,restaurant,,,,,,-32.0598531,-65.0368323
Gonzalez,supermarket,,,,,,-31.3113809,-64.4558402
Mi bella flor!!!,florist,Boulevard Chacabuco 555,,,,,-31.4240237,-64.182628
Tony,supermarket,,,,,,-31.4103906,-64.482252
El Candel,restaurant,,,,,,-31.4198924,-64.5040369
Cantina de la Pileta,kiosk,,,,,,-31.3998829,-64.4687434
Bar Chuña,bar,,,,,,-30.9627772,-64.5983673
Bar El Cristo,bar,,,,,,-30.977084,-64.4830587
Vivero Sequoia,garden centre,,,,,,-31.3254281,-64.4548591
Maja Morena Pizza,restaurant,,+54 3541 433434,,,,-31.4105158,-64.4824354
La Volanta,restaurant,,,,,,-31.4118918,-64.4844142
Farmaplus,pharmacy,,,,,,-31.4028823,-64.4712114
Fiona,supermarket,,,,,,-31.9865654,-64.5597812
Sarri,restaurant,,,,,,-31.9793241,-64.5542057
Garrido Fiambreria,convenience,,,,,,-31.9749839,-64.5588318
Farmacia Calamuchita,pharmacy,,,,,,-31.977431,-64.5594147
Terbonati,pharmacy,,,,,,-31.9798949,-64.5598999
Nervegna,pharmacy,,,,,,-31.9815444,-64.5606975
Cerrajeria Cerro,hardware,,,,,,-31.3862102,-64.2301638
YPF,fuel,Monte Cristo,,,,,-31.3441318,-63.9397428
Shell Santa Albina,fuel,Avenida General Manuel Savio,,,,,-31.4606189,-64.1094912
Parrilla Restaurante,restaurant,,,,,,-31.6495981,-64.4570233
Axion,fuel,"Buenos Aires 720, General Deheza",+54 9 358 485 8740,,,,-32.7587874,-63.7980504
Shell,fuel,"Avenida San Martín 932, General Cabrera",+54 358 493 0313,,,,-32.8106627,-63.8740873
YPF,fuel,"Tucumán, General Cabrera",+54 358 493 0326,,,,-32.8139156,-63.8794786
YPF,fuel,"Ruta Nacional 9 Km 783, Villa del Totoral",+54 3524 47 1711,,,,-30.7064565,-64.0552977
Super Mercado Alem,supermarket,,,,,,-30.424751,-64.3441765
Aries,pharmacy,Avenida Colón 3239,+54 351 480 3204,,,,-31.4016472,-64.2232917
Aries II,kiosk,Avenida Colón 2406,+54 351 487 6044,,,,-31.4043902,-64.2138503
Don Luis,fuel,,,,,,-32.4426479,-63.7141111
Rigoletto,bar,,,,,,-32.4146554,-63.2417503
Bar Argentino,bar,,,,,,-32.4112194,-63.243616
Isabel de la Cruz,bar,,,,,,-32.4113681,-63.2434669
CPF Motos,motorcycle,,,,,,-33.1288537,-64.3488466
Amalio Orazzi Neumaticos,tyres,,+54 353 496 0870,,,,-32.4344039,-63.7267709
Forcor S.A.,car,,,,,,-32.4302172,-63.7312544
Gomería Altamirano,tyres,,+54 353 496 0030,,,,-32.4233328,-63.7426327
Parrila Rancho W,restaurant,,,,,,-32.43126,-63.7318103
Dondo Restobar,restaurant,,,,,,-32.4275688,-63.7328737
La Barra,bar,,,,,,-32.426928,-63.7335655
Tabac,restaurant,,,,,,-32.4275496,-63.7341984
Weekend,restaurant,,,,,,-32.428388,-63.7340871
Almacor,supermarket,,,,,,-32.4272369,-63.730064
Dia,supermarket,,,,,,-32.4260425,-63.7385014
La Vencedora,supermarket,,,,,,-32.4272922,-63.7368699
Rhasa,fuel,,,,,,-30.9839979,-64.4923233
De Gasperi,pharmacy,La Cumbre,,,,,-30.9830761,-64.4927176
La Casona Del Toboso,restaurant,,,,,,-30.9837265,-64.4922179
Rhapsody,restaurant,,,,,,-30.9852335,-64.4911596
The Owl,restaurant,,,,,,-30.9847195,-64.4915684
Palermo,cafe,,,,,,-30.9825816,-64.4936578
La Recova,cafe,,,,,,-30.9826698,-64.492225
Clínica Privada La Cumbre,clinic,,,,,,-30.9848153,-64.4901122
Ala Pampa,pub,,,,,,-30.9919193,-64.5384486
Dani Cheff,cafe,,,,,,-30.9823031,-64.4936769
Alcudia,restaurant,,,,,,-30.9829068,-64.4926685
Abraham,pharmacy,La Cumbre,,,,,-30.9814367,-64.4909878
Ferretería 9 de Julio,hardware,,,,,,-30.9821599,-64.4902007
Supermercado Only,supermarket,,,,,,-30.9777826,-64.4889466
Rivadavia,pharmacy,La Cumbre,,,,,-30.9815371,-64.492911
El Potrerillo,pharmacy,,,,,,-30.9784264,-64.4889022
Pub El Paso,pub,,,,,,-30.9747973,-64.4840461
CTC,oficina: government,Sarmiento 24,,,,,-31.7975127,-65.0019615
San José,supermarket,,,,,,-30.4247022,-64.3515703
CorDiez,supermarket,,,,,,-30.4251371,-64.3515085
Delfin,supermarket,,,,,,-30.42232,-64.3531072
Parrilada de Yiyo,restaurant,,,,,,-30.426043,-64.3403388
Parrilada Vicentico,restaurant,,,,,,-30.4240879,-64.3418896
Parrillada Fiorello,restaurant,,,,,,-30.4278639,-64.3388056
Dean Funes,pharmacy,,,,,,-30.4243045,-64.352281
San Jorge de los Cielos,pharmacy,,,,,,-30.4236182,-64.3515769
Muiños,pharmacy,,,,,,-30.4235782,-64.3511545
Bar Tabi,cafe,,,,,,-30.4245172,-64.3529448
Catedral,supermarket,,,,,,-30.4258067,-64.3526096
Soma,restaurant,,,,,,-30.8592781,-64.5212855
Enerja,fuel,,,,,,-31.3455781,-65.0798571
Lo de Francisco,restaurant,,,,,,-31.3456798,-65.0805335
Despensa,convenience,,,,,,-31.3455815,-65.080497
El Profeta,restaurant,,,,,,-31.3465761,-65.0795329
Taninga Automotores,car,,,,,,-31.3456119,-65.079197
Taller de motos,car repair,,,,,,-31.345822,-65.0792403
Maderas Taninga,convenience,,,,,,-31.3452706,-65.0791836
Prego Cremas Heladas y Chocolatería,ice cream,,,,,,-32.4027827,-63.2441467
Bionat Mercado Natural,health food,Bv. España 663,+54 353 406 3868,,,,-32.402126,-63.2447025
Autoservicio Dequino,supermarket,Boulevard Vélez Sarsfield 1552,,,,,-32.4010571,-63.2442572
Súper Chino,supermarket,Periodistas Argentinos 626,,,,,-32.41355,-63.2323104
El Gran Prix,car wash,,,,,,-32.4118968,-63.2401159
Lavadero Centro,car wash,,,,,,-32.4147273,-63.2375892
Cooperativa de Trabajo Juvenil Nuevo Sol Limitada,car wash,Boulevard Vélez Sarsfield,+54 353 461 8617,,,,-32.4051446,-63.2509891
El Dorado,seafood,Entre Ríos 1469,,,,,-32.4104206,-63.2377904
Coronados,cafe,"Entre Ríos, Villa María",,,,,-32.4110463,-63.2382223
O'Clock Uniformes,clothes,Entre Ríos,,,,,-32.4118274,-63.2395999
Vetro S.A.,glaziery,Entre Ríos 1293,,,,,-32.4117428,-63.2398262
La Torre,bar,,,,,,-32.4106868,-63.2423894
Administración Federal de Ingresos Públicos,oficina: government,,,,,,-32.4085651,-63.2439071
Dirección General de Rentas,oficina: government,,,,,,-32.4103958,-63.2423212
NB Joyería y Relojería,jewelry,San Martín 89,,,,,-32.4119504,-63.2426725
Expolibro,books,"General Paz 257, Villa María",,,,,-32.4087382,-63.2457975
Mega Compras,supermarket,,,,,,-32.4091004,-63.2563002
Mi Lugar,restaurant,"Olmos 1454, Mina Clavero",+54 9 3544 57 0032,,,,-31.7267335,-65.0002686
GPS MUNDO,electronics,,,,,,-31.3612054,-64.2020472
Guardia E.P.E.C.,electrician,,,,,,-32.4072484,-63.2510533
Dalas,ice cream,,,,,,-32.4213873,-63.246153
El Corte,butcher,Avenida General Belgrano 659,+549351267517;+5493513151631,,elcorte.carnesyvinos,,-31.0629035,-64.3008672
Mi Rincon,restaurant,,+54 3525 49-3276,,,,-31.0694792,-64.2994658
Alcorta,restaurant,,,,,,-31.4101027,-64.1904319
La Mamma,restaurant,"Avenida Figueroa Alcorta 270, Córdoba",,,,,-31.4104145,-64.1905452
Las Chilcas,restaurant,,,,,,-31.4105677,-64.1905956
Grido,ice cream,"Avenida Elpidio Gonzáles 86, Villa María",+54 353 453 7290,,,,-32.4153556,-63.2597379
Glup's,ice cream,Boulevard Marcelo T. de Alvear 405,+54 353 453 7070,,,,-32.4121184,-63.2352968
Grido,ice cream,Boulevard Vélez Sarsfield 633,,,,,-32.4071419,-63.2540872
Grido Helados,ice cream,Avenida del Libertador General San Martín 535,,,,,-32.4223213,-63.2489077
Grido,ice cream,Buenos Aires 1156,,,,,-32.4140321,-63.2478053
Glup's,ice cream,Boulevard Argentino - Raúl Ricardo Alfonsín 1750,,,,,-32.3976532,-63.2438066
Meet,bar,,,,,,-32.4266655,-63.2662187
Hipermercado Anselmi,supermarket,,,,,,-31.42777,-62.1143091
Runa Disco,pub,,,,,,-31.426261,-62.1161721
Luis Guerra,pharmacy,,,,,,-31.4066341,-64.2074597
Idris,pharmacy,,,,,,-31.4054803,-64.2111504
Del Clínicas,pharmacy,,,,,,-31.4065425,-64.2033291
Hospital Municipal Dr Lorenzo Colica,clinic,"Mitre 578, Monte Buey",+54 3467 47 0018,,,,-32.9164066,-62.457323
Hospital Italiano Moente Buey,clinic,"Rivadavia 89, Monte Buey",,,,,-32.9168812,-62.4509655
YPF,fuel,"Mitre 6, Monte Buey",,,,,-32.9176564,-62.4499698
Nueva Ventura,pharmacy,,,,,,-31.4108645,-64.2119765
Supermercado Mariano Max,supermarket,,,,,,-30.7247343,-64.8017285
Cyber Explorer Computación,kiosk,,,,,,-30.7213818,-64.80693
Supermercado Delfín Los Rosales,supermarket,,,,,,-30.7212895,-64.8085614
"Supermercado las ""3 MMM""",supermarket,,+543549424815,,,,-30.7209497,-64.8074512
Farmacia Boticaria,pharmacy,,,,,,-30.7275123,-64.800059
"Minimercado ""Oscar""",convenience,,,,,,-30.727226,-64.8002171
París,pharmacy,,+54 3549 42 2293,,,,-30.72591,-64.8028592
Los Amigos,butcher,,,,,,-30.7281036,-64.7983015
Kiosco Romina,kiosk,Hipólito Yrigoyen,+543549632357,,,,-30.7225875,-64.806629
Farmacia Bernay,pharmacy,,,,,,-30.722268,-64.8063689
Farmacia Plaza,pharmacy,,,,,,-30.7220463,-64.8078633
"""Mora"" Café - Bar",cafe,,,,,,-30.7214741,-64.8055646
Dispensario Municipal de La Granja,clinic,"Avenida Los Fresnos, La Granja",+54 3525 49 8121,,,,-31.0084363,-64.2691607
"Panadería ""La Higiénica""",bakery,,,,,,-30.7278621,-64.798899
Kaos Megadisco,pub,25 de Mayo,,,,,-30.4248963,-64.3536027
Farmacia Candelaria,pharmacy,,+543549419386,,,,-30.7423114,-64.7883013
Club Ferroviario de Náutica y Pesca,seafood,,,,,,-30.7715503,-64.7568439
SANOS Ex-Clínica San Carlos,clinic,,+543549421999,,,,-30.7227157,-64.807378
Farmacia Santa Rita,pharmacy,Sarmiento 286,+543549570075,,,,-30.7285866,-64.8013157
Farmacia Arrigoni,pharmacy,,,,,,-30.7283938,-64.8016742
"Rotisería ""El Cántaro""",fast food,,,,,,-30.7272829,-64.8001057
"Kiosco ""Karamelo""",kiosk,,,,,,-30.7241466,-64.8042931
Terra Urban Concept,clothes,,,,,,-30.7242973,-64.8045212
"""Publisual"" Ploteos",kiosk,,,,,,-30.7241219,-64.8078101
Empresa Cabrera Servicios de Salud,clinic,,,,,,-30.7223574,-64.8065449
Óptica Cruz del Eje,optician,,,,,,-30.7244037,-64.8031692
"""La Lumba"" Agente oficial Claro",mobile phone,San Martín 111,,,,,-30.7245582,-64.803071
Peluquería Natalia Bomendre,hairdresser,,,,,,-30.7247337,-64.8029656
La Casa de la Aceituna,gift,,,,,,-30.7239186,-64.8040219
"Kiosco ""Las 3 Esquinas""",kiosk,,,,,,-30.7164538,-64.8173193
Ciampagna y Asoc. S.A.,oficina: company,,,,,,-31.4173317,-64.1954594
El Viejo Munich,restaurant,,,,,,-30.7368908,-64.7917546
Farmacia Victoria,pharmacy,,,,,,-30.7246526,-64.8015549
Puma,fuel,Ruta Nacional 158,+54 353 452 6490,,,,-32.427173,-63.312793
YPF,fuel,Ruta Nacional 158,+54 353 491 1700,,,,-32.4278484,-63.3138167
Shell,fuel,"Ruta Nacional 1V09, Leones",+54 3472 48 1566,,,,-32.6522106,-62.299327
Axion Atalaya,fuel,,,,,,-32.6537153,-62.293524
Easy,hardware,,,,,,-33.1249301,-64.3853273
Walmart,department store,,,,,,-33.1309776,-64.3823764
Imprenta Servicios Gráficos,copyshop,,,,,,-30.7305097,-64.7949728
Farmacia Central,pharmacy,,,,,,-30.7313281,-64.7937428
Heladería y Cafetería BenSol,ice cream,,,,,,-30.7282134,-64.7980815
Laverap,laundry,,,,,,-30.7282779,-64.7983686
Rossetti Deportes,sports,,,,,,-33.1179349,-64.3465216
Super Top,supermarket,,,,,,-33.1236347,-64.3474822
Garino Cereales SRL,farm,,,,,,-31.7090507,-63.5165422
Centro de Salud Municipal,clinic,,,,,,-30.9144997,-62.676117
Rancho A Parte,restaurant,"Los Plátanos, Alpa Corral",,,,,-32.6926764,-64.7244403
Sánchez,pharmacy,,,,,,-31.4311101,-64.2258631
707,bakery,,,,,,-31.4304384,-64.2129845
Lo de Villalpando,restaurant,"Avenida Fuerza Aérea 2450, Córdoba",,,,,-31.4299014,-64.2124543
Cassual coffee,cafe,,,,,,-31.4290615,-64.2117018
desire modas,clothes,143,,,,,-32.4132659,-63.2432805
Claro,mobile phone,,,,,,-32.4129745,-63.2435336
Betos,fast food,,,,,,-32.4054227,-63.2417427
Reno Amoblamientos,furniture,,+54 353 4546961,,,,-32.4117598,-63.235637
Takones,shoes,,,,,,-31.4171024,-64.1860559
Tejano,clothes,,,,,,-31.4172962,-64.1859229
Stork Man,shoes,,,,,,-31.4143917,-64.1846716
cilek,shoes,,,,,,-31.4141807,-64.1845976
GOYA,shoes,,,,,,-31.414096,-64.1847854
punto joven,shoes,,,,,,-31.4136151,-64.1845731
nodo,shoes,,,,,,-31.4147757,-64.183742
grimoldi,shoes,,,,,,-31.4148688,-64.1836671
Montana,shoes,,,,,,-31.4141471,-64.1855437
Sir Chaplin,cafe,,,,,,-31.41434,-64.1856245
le poulet,fast food,,,,,,-31.4236417,-64.1901668
Consultorios Médicos Privados Tablada,doctors,,+54 3543 43 3864,,,,-31.2932601,-64.2968446
Oficina de Licencias de Conducir,oficina: government,,,,,,-31.2969952,-64.2920626
Dirección General de Rentas - Receptoría,oficina: government,"Saavedra 206, Villa Allende",,,,,-31.293618,-64.2956653
BuenosDias,supermarket,,,,,,-31.4254704,-64.1885549
Lapana,bakery,,,,,,-31.4254158,-64.1878285
Mini Libertad,supermarket,,,,,,-31.4256908,-64.1871387
Status,clothes,Corrientes 1084,,,,,-32.4123422,-63.2426321
Tauler,electrician,San Martín 141,,,,,-32.4125489,-63.2424309
La Terminal,bar,"Sarmiento, San José de la Dormida",,,,,-30.3583919,-63.9504736
Casa de té Plaza de la fuente,cafe,,,,,,-31.3543617,-64.5971462
Maxi Kiosco,convenience,,,,,,-31.3564885,-64.5898014
Aspro,fuel,,,,,,-31.4038595,-64.4727479
Clemen,pharmacy,,,,,,-31.4279947,-64.4959346
Meliquina Restobar,restaurant,,,,,,-31.4095995,-64.4938312
Kiosko Rocky,kiosk,Avenida Cárcano,,,,,-31.4229737,-64.4956503
Club Dub,pub,,,,,,-31.4157152,-64.494817
Punta Hidalgo,pub,,,,,,-31.4160146,-64.4924167
Stefany Webber,pub,,,,,,-31.4176156,-64.4898279
Zebra Club,pub,,,,,,-31.4182794,-64.5019457
Del Centro,pharmacy,Avenida Libertad 40,,,,,-31.4224496,-64.4952575
Electromecanica Nieto,car repair,,,,,,-31.4118074,-64.4842392
Bar Indra,cafe,,,,,,-30.8589893,-64.5261445
San Marcos,pharmacy,Avenida San Martín 675,,,,,-31.4162941,-64.4899954
FarmaVida Sucursal 2,pharmacy,"Boulevard Italia 299, Villa María",,,,,-32.4131482,-63.2534408
San Lucas,pharmacy,Boulevard Italia 346,,,,,-32.4123864,-63.2534065
Carnes Cari,butcher,Boulevard Italia 399,,,,,-32.4121826,-63.2542568
Dora,convenience,La Rioja,,,,,-32.4119014,-63.2538029
Sinapsis Technologies,computer,Paso de los Andes,,,,,-33.1434913,-64.3636123
Tercer Tiempo,restaurant,Entre Ríos 785,,,,,-32.4148238,-63.2447215
Sebastián Valfré,alcohol,Bartolomé Mitre 140,,,,,-32.4144487,-63.244968
Jerome Brew Pub Express Córdoba,bar,"Avenida Marcelo T. de Alvear 545, Córdoba",+54 9 351 518 0354,,,,-31.4213376,-64.1908733
Casa Grassi,funeral directors,"Hipólito Yrigoyen 443, Rio Cuarto",,,,,-33.1216057,-64.3455663
Grassi Sucursal 1,pharmacy,,,,,,-33.1219762,-64.3467291
Grassi Sucursal 3,pharmacy,,,,,,-33.1215113,-64.3487358
Grassi Sucursal 2,pharmacy,,,,,,-33.1242083,-64.3498472
Grassi Sucursal 5,pharmacy,,,,,,-33.135431,-64.3414512
Grassi Sucursal 6,pharmacy,,,,,,-33.1232702,-64.3480334
Grassi Sucursal 4,pharmacy,,,,,,-33.1060031,-64.3376413
Mi Vet,veterinary,"Buenos Aires 1130, Córdoba",,,,,-31.4293855,-64.1882159
Punto banca tabaqueria,newsagent,Buenos Aires 99,,,,,-31.4174272,-64.1830207
10 Años,kiosk,"Independencia 1201, Córdoba",,,,,-31.429815,-64.1898291
Rockería Trashed,gift,"Boulevard Chacabuco 150, Córdoba",+153463409865,,,,-31.4190191,-64.1798147
Bar GNC,fast food,,,,,,-32.6866457,-62.1054741
Full YPF,cafe,Avenida Intendente Jorge Loinas,,,,,-32.6885691,-62.0930619
Club Atlético Washington,cafe,,,,,,-33.8742951,-64.6898308
"Cooperativa de Servicios Públicos, Crédito Consumo y Vivienda Limitada",oficina: water utility,,,,,,-32.2144226,-62.6294898
Giachero,fuel,,,,,,-32.218407,-62.6325431
Unión Cívica Radical de Laguna Larga,oficina: political party,,,,,,-31.7742095,-63.8062847
"Kiosco ""Todo Lindo""",kiosk,,,,,,-30.7216588,-64.8069469
"""La Meka"" Regalos",gift,,,,,,-30.7220439,-64.806692
Ministerio de Ciencia y Tecnología de la Provincia de Córdoba,oficina: government,,,,,,-31.4203593,-64.1712806
Shell,fuel,Avenida Bernardo O'Higgins,,,,,-31.449224,-64.168565
Feliziani Automotores,car,,,,,,-32.6868725,-62.1066864
Don Lazaro,restaurant,,,,,,-32.6878035,-62.1033271
García & Olivero,electronics,,,,,,-32.6931744,-62.1047937
La Vieja Librería,books,,,,,,-32.6946888,-62.1054233
Panificadora La Baguette,bakery,,,,,,-32.6926374,-62.1043259
Café Racer,restaurant,Boulevard Roque Sáenz Peña 1300,,,,,-32.6926,-62.1044221
Bonfigli Calzados,shoes,,,,,,-32.6970835,-62.1049551
Vea,supermarket,"Avenida Colón, Córdoba",,,,,-31.4119364,-64.18943
Buenos Días,supermarket,"Deán Funes 325, Córdoba",,,,,-31.4147753,-64.1885014
Carrefour Express,convenience,,,,,,-31.4151291,-64.1805669
El Fogón de los Arrieros,restaurant,,,,,,-31.3658534,-64.2191119
La Parrilla,restaurant,,,,,,-31.3676286,-64.2193398
Bodega Terra Camiare,winery,,,,,,-31.0119563,-64.0645401
Fertilia,farm,,,,,,-31.0230908,-64.0387501
Der Uhu,restaurant,"Avenida San Martín 321, Villa General Belgrano",,,,,-31.9719788,-64.5579126
La Familia Giannone,restaurant,"Avenida Julio Argentino Roca 540, Villa General Belgrano",,,,,-31.9858365,-64.5610461
Viejo Munich,restaurant,"Avenida San Martín 362, Villa General Belgrano",,,,,-31.972202,-64.5577158
Potrerillo,restaurant,"Avenida Julio Argentino Roca 88, Villa General Belgrano",,,,,-31.9786683,-64.5598314
Posta Cañitas,restaurant,,,,,,-31.4638301,-64.4261641
YPF,fuel,"Ruta Nacional 7 Libertador General San Martín, Laboulaye",+54 3385 42 7191,,,,-34.1451567,-63.3913362
YPF,fuel,"Ugarte 120, General Levalle",+54 3385 48 0146,,,,-34.009471,-63.9215697
"Comedor ""Guerra""",restaurant,,,,,,-34.0362974,-63.9241161
TransGas,fuel,,,,,,-34.0366666,-63.9266227
Cerrajería El Castillo,hardware,,,,,,-34.1289576,-63.3920272
Florería Casa Muñoz,florist,,,,,,-34.1287659,-63.3914941
Asociación Mutual del Docente,department store,,,,,,-30.7213339,-64.8064861
Gomeria del Centro,tyres,"El Abeto 7, Villa General Belgrano",,,,,-31.9750427,-64.5586965
"""Uniformes 710""",clothes,,,,,,-30.7228257,-64.8046999
Melody Music Shop,hifi,,,,,,-30.723635,-64.804201
Gourmet Barba Roja,brewery,"Avenida San Martín 58, Villa General Belgrano",,,,,-31.9758272,-64.5585867
Moda Fashion,clothes,"Avenida San Martín 205, Villa General Belgrano",,,,,-31.9737696,-64.558561
Calzados Mariana,shoes,"Avenida San Martín 304, Villa General Belgrano",,,,,-31.9729814,-64.5580484
Doña Nené,supermarket,"Avenida San Martín 305, Villa General Belgrano",,,,,-31.9725975,-64.5581336
Granja de Los Duendes,convenience,Avenida Las Magnolias 49,,,,,-31.9707193,-64.5555724
Farmacia de la Clinica,pharmacy,"Avenida Las Magnolias 91, Villa Gral Belgrano",,,,,-31.9706585,-64.5541978
Kamama Bowling,bar,"Güemes 74, Santa Rosa de Calamuchita",,kamama_bowling@hotmail.com,,,-32.0683602,-64.538896
Hispania hotel,restaurant,,,,,,-31.6544554,-64.4405393
La Bella Gioconda,furniture,"Boulevard Marcelo T. de Alvear 615, Villa María",,,,,-32.4139134,-63.2336152
Pardo Hogar,electronics,"Boulevard Marcelo T. de Alvear 621, Villa María",,,,,-32.4145265,-63.2337849
La Técnica,bakery,"Santa Fe 1600, Villa María",,,,,-32.4066541,-63.2386662
Helmut,restaurant,,+54 3546 48 1189,,,,-31.8983857,-64.7730895
Servus,supermarket,,,,,,-31.8986803,-64.7728391
Supermercados Becerra,supermarket,,,,,,-31.658419,-64.4285711
Becerra,supermarket,,,,,,-31.658711,-64.4235151
Registro Civil,oficina: government,,,,,,-31.2979432,-64.2935595
Franceschi,bar,,,,,,-30.9813928,-64.0900075
La Rambla,bar,Avenida Marcelo T. de Alvear,,,,,-31.4225364,-64.1925794
Yerba Buena,convenience,Avenida San Martín,,,,,-31.1711852,-64.31572
Parador El Yuspe,restaurant,,,,,,-31.3774339,-64.7707886
Axion Pignata,fuel,,,,,,-31.6498289,-63.9033928
YPF,fuel,"Juan Bautista Alberdi, Pilar",,,,,-31.67025,-63.88959
YPF,fuel,"Avenida Mitre 239, Río Primero",,,,,-31.3305237,-63.6247061
Shell,fuel,"Avenida Sarmiento 355, Río Primero",+54 3574 48 0054,,,,-31.3296485,-63.6266001
Drugstore,kiosk,,,,,,-31.3316649,-63.6218773
Kiosko de la Andrea,kiosk,,,,,,-31.3312645,-63.6227982
La Roca,restaurant,,,,,,-31.3312791,-63.6226928
Il Sonno - Pub Resto-Bar,pub,,,,,,-31.3312156,-63.6228256
La Ruta,restaurant,,,,,,-31.3343154,-63.616398
Lucy & Co,convenience,,,,,,-31.3264397,-63.629957
Automotores Vázquez,car,,,,,,-31.3285485,-63.6281072
Premoldeados de Hormigón Raful,yes,,,,,,-31.3287187,-63.6277901
Serrano,restaurant,,,,,,-32.5446019,-63.4786021
Axion,fuel,Avenida Fuerza Aérea 4530,+54 351 465 1337,,,,-31.4322927,-64.2459784
Bulonera Ruta 9,hardware,,,,,,-32.6866423,-62.1058452
Ramello Equipamientos,car parts,,,,,,-32.6864426,-62.1066109
Pilar S.R.L.,car parts,,,,,,-32.6864325,-62.1067644
Bulonera Industrial S.H.,hardware,,,,,,-32.6862711,-62.1075097
Walter Brusa Seguros,oficina: insurance,,,,,,-32.6867145,-62.1076658
Maderera Norte,window construction,,,,,,-32.6866746,-62.1079674
Despensa Ruta 9,convenience,,,,,,-32.6861385,-62.1085056
Agrosudeste S.R.L.,yes,,,,,,-32.6864848,-62.1091078
Cristante Hnos. S.A.,car,,,,,,-32.686341,-62.1099147
Gomería Agrocentro,car repair,,,,,,-32.6864194,-62.109545
Expo Lecno (Aberturas Aluminio y Madera),window construction,,,,,,-32.6858224,-62.1101907
Restaurant Basko,restaurant,,,,,,-32.6857221,-62.1106892
Castagno y Cnía. Neumáticos (Gomería),car repair,,,,,,-32.6856128,-62.1109307
P & L Neumáticos (Gomería),car repair,,,,,,-32.6855711,-62.1115955
Transporte Marcos Juárez (Cargas y Encomiendas),yes,,,,,,-32.6853158,-62.1116924
Inmobiliaria Andrés Lestcher,oficina: estate agent,,,,,,-32.6903301,-62.1038158
Marcelino Botacín,alcohol,,,,,,-32.6915606,-62.1046679
Avellaneda,butcher,,,,,,-32.6915057,-62.1048512
Laboratorio de Análisis Clínocos,oficina: research,,,,,,-32.6916782,-62.1047083
Superpanchos Maxikiosco,kiosk,,,,,,-32.6917514,-62.1047145
Mapfre Seguros,oficina: insurance,,,,,,-32.6918351,-62.1047363
Cochi Pinturas y Servicios,paint,,,,,,-32.6919606,-62.1047705
Fulanitos Juguetería Didáctica,toys,,,,,,-32.692111,-62.1047981
Vivero La Aljaba,garden centre,,,,,,-32.6922337,-62.1048282
Crayon,toys,,,,,,-32.6923782,-62.1048757
Santamaría,pharmacy,,,,,,-32.6929093,-62.1046231
STC Servicio Tecnico de Computación,computer,,,,,,-32.6930055,-62.1047473
Fernando Abraham Martillero Judicial,oficina: estate agent,,,,,,-32.6932162,-62.1050298
Escribanía Wagner,oficina: lawyer,,,,,,-32.6924606,-62.1045762
Cinema Videoclub,video,,,,,,-32.6933762,-62.1050801
La Segunda Seguros,oficina: insurance,,,,,,-32.6934981,-62.1048682
Coovaeco Turismo,travel agency,,,,,,-32.6934258,-62.1048575
Lo de Marisa,clothes,,,,,,-32.6933762,-62.104836
H. y R. Tuttolomondo,computer,,,,,,-32.6935477,-62.1047287
Keep 'on,clothes,,,,,,-32.6936448,-62.1048736
Agente Claro Telefonía Móvil,mobile phone,,,,,,-32.6935635,-62.1051096
Así te Quiero,clothes,,,,,,-32.6945567,-62.105356
Florería La Orquídea,florist,,,,,,-32.6949783,-62.1052339
María Sol,clothes,,,,,,-32.6951461,-62.105513
El Vestidor,bar,,,,,,-32.6952048,-62.1055305
Agente Claro,mobile phone,,,,,,-32.6957102,-62.1056601
Rapipago,oficina: financial,,,,,,-32.6957605,-62.1054249
Kiosco Alem,kiosk,,,,,,-32.6957543,-62.10568
Perfil,clothes,,,,,,-32.695964,-62.1054856
Diego Gurdulich,photographic laboratory,,,,,,-32.6960102,-62.1054906
Alejandro Capellino,photographic laboratory,,,,,,-32.6958948,-62.1057025
oh! la la,clothes,,,,,,-32.6959703,-62.1057299
Minicuotas Ribeiro,electronics,,,,,,-32.6961716,-62.105528
La Churrasquita,restaurant,,,,,,-32.6961234,-62.1057747
Alpina,ice cream,,,,,,-32.6963289,-62.1055654
47 street,clothes,,,,,,-32.6963961,-62.1055753
Vetyver Distribuidora,cosmetics,,,,,,-32.6953726,-62.1064651
Nattkläder,clothes,,,,,,-32.6966249,-62.1055206
Expreso Sur,travel agency,,,,,,-32.6966369,-62.1054586
Rossetti Deportes (Outlet),sports,,,,,,-32.6966435,-62.1053966
Tienda Los Amigos,clothes,,,,,,-32.6967021,-62.1049977
Aldo Trajes,clothes,,,,,,-32.696738,-62.1048196
(A) Dos,baby goods,,,,,,-32.6970052,-62.1047653
Replica,clothes,,,,,,-32.6970183,-62.1046879
Skay,ice cream,,,,,,-32.6970443,-62.1045794
Onda Sur,travel agency,,,,,,-32.6967771,-62.1046027
aMore Mío,clothes,,,,,,-32.6967673,-62.1045213
Sólido Inc.,clothes,,,,,,-32.6971063,-62.1043045
Distribuidora Diego Gambaldo,cosmetics,,,,,,-32.6971117,-62.1041788
EMS7COR,locksmith,,,,,,-32.6971461,-62.1039809
Menta,clothes,,,,,,-32.6971678,-62.1038969
Kevinston Hause,clothes,,,,,,-32.6971932,-62.1037162
Don José,newsagent,,,,,,-32.6969451,-62.1036968
Don Marcelo,outdoor,,,,,,-32.6969542,-62.1036366
Centro de Apoyo Educativo,oficina: educational institution,,,,,,-32.6971823,-62.1038044
Zion,clothes,,,,,,-32.696973,-62.1035884
PCMax,computer,,,,,,-32.6969763,-62.1035381
Por Amor a Vos,interior decoration,,,,,,-32.6969893,-62.1034645
Valquiria,shoes,,,,,,-32.6969958,-62.1033754
Multipack (Envases Descartables),variety store,,,,,,-32.6970089,-62.1033096
Montironi,car,,,,,,-32.6970154,-62.1031624
Paola Miguel,shoes,,,,,,-32.6970219,-62.1032592
Fussetti Hogar,interior decoration,,,,,,-32.6972893,-62.1050926
Felices Fiestas,gift,,,,,,-32.6973192,-62.1008058
SanCor Salud,oficina: insurance,,,,,,-32.6970921,-62.1027763
Artesanías,art,,,,,,-32.6969424,-62.1028971
Veo Veo,baby goods,,,,,,-32.6969523,-62.1031362
Isidoro,newsagent,,,,,,-32.6968102,-62.1028553
Brioni Pinturas,paint,,,,,,-32.6968127,-62.1030879
Arcor Helados,ice cream,,,,,,-32.6967526,-62.1028425
Guarino Turismo,travel agency,,,,,,-32.6966846,-62.1030507
Carnicerías Integradas Toqui,butcher,,,,,,-32.6966323,-62.1027897
Ernesto Re Relojes,clockmaker,,,,,,-32.6961525,-62.1029046
Más Que Papel,copyshop,,,,,,-32.6961774,-62.1026934
Centro de Óptica y Contactología,optician,,,,,,-32.6962388,-62.1027058
Soles,baby goods,,,,,,-32.6960636,-62.1026359
Mil Colores,paint,,,,,,-32.6957917,-62.1025893
Maxikiosco Vip,kiosk,,,,,,-32.696061,-62.1025365
Antonella,shoes,,,,,,-32.6957395,-62.1028363
Cablevisión - Fibertel,oficina: yes,,,,,,-32.6957225,-62.1029901
Angela,clothes,,,,,,-32.6959434,-62.1032386
Agente Personal,mobile phone,,,,,,-32.6959277,-62.1033054
Monet,hairdresser,,,,,,-32.6956214,-62.1035396
Optica Bertozzi,optician,,,,,,-32.6958691,-62.1035745
Deco House,interior decoration,,,,,,-32.6958561,-62.1036926
Génesis,clothes,,,,,,-32.6956116,-62.1036365
Delicity,cafe,,,,,,-32.6958463,-62.1037759
La Suiza,jewelry,,,,,,-32.6955953,-62.1037507
Wok Pub,pub,,,,,,-32.6955024,-62.1042039
Bazar Todo Hogar,variety store,,,,,,-32.695403,-62.1047228
Tienda Belem,clothes,,,,,,-32.6956328,-62.1049765
Todo Pañal,baby goods,,,,,,-32.6956181,-62.105052
Librería Dauria,books,,,,,,-32.6953735,-62.1049174
Fashion Naty,clothes,,,,,,-32.6953926,-62.1048011
La Pana,bakery,,,,,,-32.6956116,-62.1051217
Mundo Visual,optician,,,,,,-32.6955823,-62.1052476
Modas Justin,clothes,,,,,,-32.6955676,-62.1052825
Almacén Estela,convenience,Bialet Massé,,,,,-31.3347771,-64.4849478
Sociedad Rural de Jesús Maria,oficina: association,,,,,,-30.9945949,-64.1072
Sorriso Odontología Integral,dentist,"Belgrano 49, Córdoba",,,,,-31.4153823,-64.1881867
XpacK,supermarket,,,,,,-30.9968592,-64.0929188
Sala de Salud,clinic,,,,,,-32.1399868,-64.5044095
Almacén Don Cristino,convenience,Sarmiento,,,,,-30.3948858,-64.1244777
Autoservicio Natalí,convenience,Sarmiento,,,,,-30.3950559,-64.1246582
El Nono,restaurant,,,,,,-30.3948987,-64.1230685
Los Turquitos,hardware,Sarmiento,,,,,-30.3949194,-64.1251803
Panadería Real,bakery,,,,,,-30.3941181,-64.1220969
Piedra Libre Resto Bar,bar,Sarmiento,,,,,-30.3949871,-64.1236864
Super Del Valle,supermarket,Sarmiento,,,,,-30.3948355,-64.1239778
Mala Espina,pub,,,,,,-30.3941891,-64.1220799
Inmobiliaria PH Bienes Raices,estate agent,"Ruta Nacional 38 Monseñor Angelelli 400, Valle Hermoso",+54 3548 47 8990,info@phbienesraices.com.ar,,,-31.1143835,-64.485388
Aristo Resto Bar,bar,,,,,,-30.8602565,-64.5253016
Policlínica La Cañada,clinic,,,,,,-30.8599666,-64.5263064
Mecánica GNC Claudio,car repair,,,,,,-30.8622313,-64.5330362
Mecánico,car repair,"Belgrano, Capilla del Monte",,,,,-30.8591243,-64.5226796
Resto Pub,pub,,,,,,-30.8586018,-64.5227332
Estación Uritorco,fuel,,,,,,-30.8599316,-64.5321811
Lo de Acevedo,restaurant,avenida San Martín,,,,,-31.9186068,-64.5761345
El Candil,restaurant,,,,,,-31.9193645,-64.576625
Shell,fuel,"Ruta Nacional 9 1633, Colonia Caroya",+54 3525 46 2162,,,,-30.9907815,-64.0978935
La Central,butcher,,,,,,-31.0198998,-64.0635202
Fortunato Rizzi e hijos,hardware,,,,,,-30.9971199,-64.089416
Metalcon,hardware,,,,,,-30.9997879,-64.0872103
Centro Integral de la Familia,doctors,,,,,,-30.998234,-64.0888929
Dispensario Lote 15,doctors,,,,,,-31.019881,-64.0631705
Espacity,furniture,,,,,,-31.0008669,-64.0837146
Argüello,pharmacy,,,,,,-31.0211672,-64.0617359
Flores IV,pharmacy,,,,,,-31.0126938,-64.0714596
San Guillermo,paint,,,,,,-30.9980536,-64.0890405
Scerbo I,pharmacy,,,,,,-31.0200464,-64.0633495
Florería Pétalos Azules,florist,,,,,,-31.0201977,-64.0628089
Marin,paint,,,,,,-31.0200148,-64.0630119
Oxígeno Caroya,hardware,,,,,,-31.0207646,-64.062169
Dirección de Policía Fiscal,oficina: government,,,,,,-31.406974,-64.1815762
Puma,fuel,"Boulevard 9 de Julio 908, Devoto",,,,,-31.4078975,-62.3028505
Portal del Sol,pharmacy,,,,,,-31.4043542,-62.3038638
Pirani,pharmacy,,,,,,-31.4019655,-62.3041145
Paschetto,pharmacy,,,,,,-31.404958,-62.3060634
Verón,pharmacy,,,,,,-31.4096683,-62.3066425
Alem,pharmacy,,,,,,-31.4026194,-62.3089627
Comedor El Rancho,restaurant,"Boulevard 9 de Julio, Devoto",+54 3564 48 1695,,,,-31.4074787,-62.3103802
Buon Gelato,deli,,,,,,-31.4026775,-62.3055029
Albino Picco e Hijos,car,,,,,,-31.4055698,-62.3059684
Jamar,supermarket,,,,,,-31.4056505,-62.3064646
Devoto,supermarket,Bv San Martin,,,,,-31.403769,-62.3063759
Cooperativa Obra y Servicos Públicos Devoto,yes,"Bv San Martin, Devoto",,,,,-31.4040371,-62.3064059
CLINICA,clinic,,,,,,-32.2038632,-64.400855
Magna,pharmacy,,,,,,-31.0202732,-64.0627157
Martín,pharmacy,,,,,,-31.0209069,-64.064263
Monserrat,pharmacy,,,,,,-31.020051,-64.0649536
Scerbo III,pharmacy,,,,,,-31.0204744,-64.0624424
Lomitos 1890,fast food,,,,,,-31.005414,-64.0804589
Martinez,pharmacy,,,,,,-31.6507285,-64.434038
Waxy O'Connors,bar,,,,,,-31.6519208,-64.4422293
Pizarrón,restaurant,,,,,,-31.6558575,-64.4383241
Pizzeria Popular,bar,,+54 3547 64 2363,,,,-31.6563216,-64.437903
El Golf,restaurant,,,,,,-31.6508329,-64.4457095
Giovanni Helados de Montaña,ice cream,"Diagonal Buenos Aires (Techada) 197, Capilla del Monte",,,,,-30.8588125,-64.5246384
Los Wimpi,supermarket,,,,,,-31.390491,-64.5600413
Ruly,restaurant,,,,,,-32.205522,-64.3996493
Global Visum,oficina: it,"Agustín Garzón 1691, Córdoba",,,,,-31.4242,-64.1623788
Doña Custodia,restaurant,,,,,,-32.1062754,-64.7550642
Los Pinos,supermarket,,,,,,-32.1047794,-64.7533877
La Revolución - Empanaderia,fast food,"Deán Funes 801, Córdoba",,,,,-31.4128745,-64.1949067
Agro Service Ruta 24,fuel,"Ruta Provincial 24, Adelia María",+54 3585 42 0605,,,,-33.6426782,-64.025829
Tarkus Bar,bar,,,,,,-33.6321938,-64.0243753
TRINIDAD PESCIALLO S.A.,fuel,"Leandro N. Alem, Adelia María",+54 3585 42 0144,,,,-33.6293954,-64.0210446
Comedor C.A.A.M.,restaurant,,,,,,-33.6314457,-64.0215804
Katemú,restaurant,,,,,,-33.629622,-64.0201137
Centro De Salud Juan Cortona,clinic,,+54 358 497 0006,,,,-33.0929355,-64.2899208
Pizzería Gaido,restaurant,"Boulevard Argentino - Raúl Ricardo Alfonsín 1851, Villa María",,,,,-32.3973359,-63.2441951
Megacompra,supermarket,,,,,,-32.3971525,-63.243538
Renault Servicio,car repair,,,,,,-31.3903387,-64.1597097
Ferretería Alem,hardware,,,,,,-31.389029,-64.1619682
Seguros San Cristóbal,oficina: insurance,,,,,,-31.388883,-64.162356
Bicicletas Tomaselli,bicycle,,,,,,-31.3888321,-64.1619467
Motos CR,motorcycle,,,,,,-31.3889732,-64.1621202
Forrajería,yes,,,,,,-31.3869868,-64.1683114
Peluquería Tito,hairdresser,,,,,,-31.3865275,-64.1691856
Despensa Loly,convenience,,,,,,-31.3863916,-64.1696881
Regalería-Librería,stationery,,,,,,-31.3864278,-64.1701659
Mueblería Don Mario,furniture,,,,,,-31.3857873,-64.171617
Mini Mercado,supermarket,,,,,,-31.4240205,-64.2459065
Librería Mis Soles,craft,,,,,,-31.4275487,-64.2458511
Consultorio Odontológico,dentist,,,,,,-31.4335301,-64.2460575
Despensa Tota,convenience,,,,,,-31.4356349,-64.2460752
Pollería,butcher,,,,,,-31.4362691,-64.245923
Despensa-Pollería,butcher,,,,,,-31.4380144,-64.2459372
Panadería Natalia,bakery,,,,,,-31.3709917,-64.1465399
Carnes Don Grillo,butcher,,,,,,-31.3708104,-64.1462427
Cooperativa La Litiniense,oficina: association,,,,,,-32.2125862,-62.6326433
biblioteca,restaurant,,,,,,-32.9184945,-62.4557361
La Rural,restaurant,"Mariano Moreno, Monte Buey",,,,,-32.9190979,-62.456133
Dirección de Cultura Municipal,oficina: government,,,,,,-32.9175427,-62.4594528
Dispensario Saldàn,doctors,,,,,,-31.3158206,-64.3125972
CM Maquinas y Herramientas,hardware,,,,,,-32.1998644,-64.2571139
Deco Dry,interior decoration,,,,,,-32.1998637,-64.2572139
Forrejería Almafuerte,pet,,,,,,-32.1998976,-64.2565684
Frigor,ice cream,,,,,,-32.191586,-64.2556926
Gold Café,cafe,,,,,,-32.1913697,-64.2555648
Red Petra,trade,,,,,,-32.1998323,-64.2573023
S&S Porcelanatos,interior decoration,,,,,,-32.1998448,-64.2574798
Salas Velatorias,funeral directors,,,,,,-32.1930382,-64.2561811
Vidrios SW&M,glaziery,,,,,,-32.1999354,-64.2560628
Espacio Alejandro,restaurant,Bialet Massé,,,,,-31.2977602,-64.4644661
CRUZ,clothes,"Nuestra Señora de la Asunción 371, General Deheza",,,,,-32.759092,-63.7918056
Clínica Privada General Deheza,clinic,"Saavedra, General Deheza",,,,,-32.7590302,-63.7894309
Parador 585,restaurant,,,,,,-33.9309758,-64.3859722
Taller Gomeria,car repair,,,,,,-33.929326,-64.4045464
Cooperativa Eléctrica General Deheza,oficina: government,,,,,,-32.7583571,-63.7882958
Galeria comercial,mall,,,,,,-32.7552965,-63.7907988
Sociedad Italiana,bar,,,,,,-32.7547237,-63.7912977
Aduana de General Deheza,oficina: government,"General Paz 246, General Deheza",,,,,-32.7566751,-63.7898205
El Parador,restaurant,,,,,,-31.7944805,-65.0033001
La Rueda,restaurant,,,,,,-31.3189887,-65.0892471
Alfajores Las Maravillas,confectionery,,,,,,-31.7244769,-65.0040427
Cafetería Bonafide,cafe,,,,,,-31.7266818,-65.0042926
La Esquina,cafe,,,,,,-31.7264151,-65.0041799
Restaurante Coronado,restaurant,,,,,,-31.7270335,-65.0041631
El Arturo Mina,variety store,"Avenida San Martín 2258, Mina Clavero",+5493544416462,,,,-31.726744,-65.0043146
Orioni,pharmacy,,,,,,-31.7277607,-65.0045546
Feria de Artesanos,gift,,,,,,-31.725632,-65.004107
Francesco (Regionales),convenience,,,,,,-31.7236479,-65.0038324
Frigorífico RM,butcher,,,,,,-31.7291079,-65.0054067
Galería San Martin,mall,,,,,,-31.7244917,-65.0042022
La Costanera,restaurant,,,,,,-31.7247176,-65.0040251
Palenque,restaurant,,,,,,-31.7235851,-65.0038355
Cassaro,cafe,,,,,,-31.723299,-65.0039959
El Mosquito,restaurant,,,,,,-31.7223925,-65.0040401
Serafin,restaurant,,,,,,-31.7258982,-65.0031755
Lo de Jorge,restaurant,,,,,,-31.7259585,-65.0029698
De lo mas Pancho,fast food,,,,,,-31.7232951,-65.0038317
GNUinos,computer,"Juan XXIII 3057, San Francisco",,,,,-31.4132945,-62.0966968
Estación Malena,fuel,,,,,,-33.4865083,-64.4188303
Cooperativa La Vencedora,supermarket,,,,,,-32.5103737,-63.926717
Regalos Angel Del Sol,gift,,,,,,-31.7233003,-65.0067479
Artesanías 4 Hojas,gift,,,,,,-31.7206119,-65.0043608
Cabritobikes,bicycle,Avenida San Martín,,,,,-31.7190013,-65.0053371
Autoservicio Carlo,supermarket,,,,,,-31.7246536,-65.0065731
Guzmán,convenience,,,,,,-31.7311574,-65.0110569
La Mamita,restaurant,,,,,,-31.7208368,-65.004729
El Nazareno Pastelería,bakery,,,,,,-31.7192106,-65.0052419
La Nonita Artesanías,gift,,,,,,-31.7225352,-65.0065935
Kiosko La Pilar,kiosk,,,,,,-31.7194277,-65.0051211
Lash Bar,bar,,,,,,-31.7230989,-65.0067793
Supermercado Mar,supermarket,,,,,,-31.7276067,-65.005589
Ferretería Mitre,hardware,,,,,,-31.7275343,-65.0059528
Atahualpa,restaurant,,,,,,-31.7193313,-65.0049326
Arco Iris,restaurant,,,,,,-31.723661,-65.0064573
Pizza Matías,restaurant,,,,,,-31.7215713,-65.0041834
Rincon der Jorge,restaurant,,,,,,-31.724176,-65.00664
Wanted,bar,,,,,,-31.7219409,-65.0039177
Taller Mecánico Avenida,car repair,,,,,,-31.721337,-65.0068977
Lescano,pharmacy,,,,,,-31.7215296,-65.0040374
Muebleria,furniture,,,,,,-31.7526883,-65.0032732
Doña Maga,restaurant,,,,,,-31.7071457,-65.019969
Don Coco,convenience,,,,,,-31.7119129,-65.0073726
Gomería Maury,tyres,,,,,,-31.7167549,-65.011748
Champaquí,ice cream,,,,,,-31.7262208,-65.0064
Romano,bakery,,,,,,-31.7153707,-65.0061963
Lubricantes,car repair,,,,,,-31.713815,-65.0139782
Boxes Lubricantes,car repair,,,,,,-31.7091832,-65.0170283
Los Álamos Parrilla,restaurant,,,,,,-31.7093689,-65.0080337
Giuseppe,restaurant,,,,,,-31.7258533,-65.0061939
Productos Regionales Emiliano,deli,,,,,,-31.8178783,-64.9986857
Panadería San Jose,bakery,,,,,,-31.7060816,-65.0181492
Brochero,pharmacy,,,,,,-31.7061604,-65.0181057
San Eduardo,pharmacy,,,,,,-31.7074621,-65.0175691
Ferretería Sol,hardware,,,,,,-31.7076068,-65.0200885
YPF,fuel,"Avenida Belgrano, Villa Cura Brochero",+54 3544 47 0443,,,,-31.7089766,-65.0168656
Farmasierras,pharmacy,,,,,,-31.7102251,-65.0160022
Big Lomo,restaurant,,,,,,-31.7073356,-65.0186904
La Cocina de la Nona,restaurant,,,,,,-31.7127656,-65.0073559
Casa Carol Bazar,variety store,,,,,,-31.7144228,-65.0132505
Los Hermanos,butcher,,,,,,-31.7158257,-65.0128206
Ferretería Casarsa,hardware,,,,,,-31.7164148,-65.01191
Las Delicias,bakery,,,,,,-31.7257418,-65.006449
Manantial,restaurant,,,,,,-31.7959378,-65.0016138
Martín,pharmacy,"Emilio Mitre 107, Nono",54 0354 498044,,,,-31.796599,-65.0030143
Don Goyo,restaurant,,,,,,-31.7974392,-65.0045103
Il Nono,restaurant,,,,,,-31.7977938,-65.0045565
Rotisería El Koreano,fast food,,,,,,-30.8570711,-64.5289474
Samadhi,restaurant,,,,,,-30.8594806,-64.5239824
Todo Piletas,yes,,,,,,-30.8812846,-64.5387104
Iowa,restaurant,"Av. San Martín, Villa del Dique",,,,,-32.1740248,-64.4513994
San Fermin,pharmacy,,,,,,-31.3123277,-64.4609591
Fondello Foto Estudio,photo,"Vélez Sarsfield 336, Adelia María",420-227,,,,-33.630774,-64.022633
Agencia Mattana,lottery,"Rivadavia 376, Adelia María",420-267,,,,-33.6315564,-64.0202641
Forrajería El Yunque,pet,,,,,,-31.3598071,-64.5802588
Pomar,pharmacy,,,,,,-31.1184787,-64.484141
Abdel Masih,pharmacy,,,,,,-31.1173306,-64.4845031
YPF,fuel,Ruta Nacional 38 - San Martin,,,,,-31.1167445,-64.4849178
Americana,pharmacy,,,,,,-31.1130432,-64.4843111
Salbego de Núñez,pharmacy,,,,,,-31.0998755,-64.4834856
Nueva Villanueva,pharmacy,,,,,,-31.0989451,-64.4853436
Edén,pharmacy,,,,,,-31.0927677,-64.4803691
Clínica la Falda,clinic,,,,,,-31.0939848,-64.4837089
ACA,fuel,,,,,,-31.0936718,-64.4869354
Margiotta,pharmacy,,,,,,-31.0946972,-64.4874891
Eduardo,convenience,Huerta Grande,,,,,-31.0697956,-64.4973045
Sala Primeros Auxilios,clinic,Villa Giardino,,,,,-31.0478841,-64.4879353
YPF,fuel,Villa Giardino,,,,,-31.0505529,-64.4993802
Farri,pharmacy,Villa Giardino,,,,,-31.0524312,-64.4991607
Ex - Combustibles Giardino,cafe,Villa Giardino,,,,,-31.0547744,-64.4990476
La Esquina,restaurant,Huerta Grande,,,,,-31.0742686,-64.4912531
Herboristería,spices,La Cumbre,,,,,-30.9824324,-64.4934797
Porta Hermanos Taller de Platería,blacksmith,,,,,,-31.0051012,-64.4803339
El Pungo,bar,,,,,,-31.0007204,-64.4779061
El Nuevo Farol,restaurant,,,,,,-31.7976814,-65.0020374
Shell,fuel,"Bulevar Hilario Ascasubi 98, Bell Ville",+54 3537 59 6765,,,,-32.6282342,-62.6849656
Ferruchi,fuel,"San Martín, Bell Ville",+54 3537 59 6765,,,,-32.6326073,-62.6926561
Aceto,pharmacy,,,,,,-30.8580742,-64.5258757
Padro,pharmacy,Avenida San Martín 2000,,,,,-31.2770462,-64.4636536
solidaria,pharmacy,Avenida San Martín 1881,,,,,-31.2787628,-64.4633102
Bialet GNC,fuel,,,,,,-31.3004614,-64.46535
Punto Bialet,restaurant,,,,,,-31.3144783,-64.4614375
Grupo Los Altos,yes,,,,,,-30.8537776,-64.5488184
Clínica San Antonio,clinic,Pedro Ortíz y Tucumán,,,,,-31.2454478,-64.46525
Centro Municipal de Congresos y Convenciones,oficina: government,"Tucumán y Sarmiento, Cosquín",,,,,-31.2437579,-64.4645738
Comisión Municipal de Folklore,oficina: government,,,,,,-31.2434826,-64.4642658
Clínica Privada Sarmiento,clinic,"Sarmiento 540, Cosquín",,,,,-31.2433252,-64.4641667
Centro de Salud - CREMED,clinic,Palemón Carranza y Obispo Bustos,,,,,-31.2377313,-64.4669874
LR Combustibles,fuel,,,,,,-31.2636586,-64.4655307
Feria de los Artesanos,gift,,,,,,-30.7835169,-64.6355711
Clinica C.L.E.Mi.C. Salud,clinic,,,,,,-31.7181899,-65.0088422
Repuestos Motos Casaretto,car repair,,,,,,-31.7106123,-65.0157801
El Mariachi,convenience,,,,,,-31.7104317,-65.0156341
Robertito,pasta,,,,,,-31.7096542,-65.016052
Alfajores Robertito,confectionery,,,,,,-31.7095985,-65.0160841
La Parrilla de Chachalo,restaurant,,,,,,-31.7089176,-65.016506
El Sol Del Oeste,pharmacy,,,,,,-31.7091823,-65.0174975
Lopez Neumaticos,tyres,,,,,,-31.7091823,-65.0173903
Recalde Repuestos,car parts,,,,,,-31.7091823,-65.01724
El Nuevo Faro Electricidad,energy,,,,,,-31.7105845,-65.0155167
Gomería El Pilo,tyres,,,,,,-31.7090323,-65.0190635
Dispensario,clinic,,,,,,-31.7084037,-65.0219869
Despensa Olatti,convenience,,,,,,-31.7078831,-65.0199386
El Pocito,convenience,,,,,,-31.7067575,-65.0113392
Alfajores Elmira Castro,confectionery,,,,,,-31.7179294,-65.0101406
Los Tobas Artesanías,gift,,,,,,-31.7187953,-65.0105453
La Cueva Motos,car repair,,,,,,-31.1118146,-64.485067
GPS taller - Sistemas de Inyeccion y Encendido,car repair,,,,,,-31.110392,-64.4845385
Napoli,restaurant,,,,,,-31.1249002,-64.4850374
Petro Valle GNC,fuel,"Jorge Raúl Recalde, Mina Clavero",+54 3544 47 0238,,,,-31.741653,-65.0028873
Taller Mecánico Mina Clavero,car repair,,,,,,-31.740495,-65.0058999
Regional Pablito Pescador,gift,,,,,,-31.7648854,-65.0007498
Estudio Jurídico Doctora Alicia Calderon Delgado,oficina: lawyer,"Sargento Cabral 218, Villa Carlos Paz",+54 3541 43 0458,,,,-31.4229976,-64.4987898
El Paso,restaurant,,,,,,-31.7616368,-65.0010093
Gomeria La Familia,car repair,,,,,,-31.757329,-65.0018281
Venta de Chivitos Y Lechones,butcher,,,,,,-31.7561586,-65.0021681
Del Carmen,restaurant,,,,,,-31.7544388,-65.0025056
Todo Luz Iluminación,energy,,,,,,-31.7527599,-65.0032457
Madedera Plus,trade,,,,,,-31.7466879,-65.0041172
Aserradero Nenino,trade,,,,,,-31.7453775,-65.0048886
Todo al Paso,convenience,,,,,,-31.7458933,-65.0047061
El Padrino,restaurant,,,,,,-31.7449609,-65.0045718
Bj Regionales,gift,,,,,,-31.7445825,-65.0050235
Indus-Plast Piscinas,swimming pool,,,,,,-31.7435773,-65.0052713
Parador La Rotonda,restaurant,,,,,,-31.7433695,-65.0053081
Frenos y Embragues,car repair,,,,,,-31.7430095,-65.004935
Parrilla El Pial,restaurant,,,,,,-31.7411019,-65.0052926
Taller Mecánico Pupy,car repair,,,,,,-31.7439694,-65.0020884
MegaMat,trade,,,,,,-31.7401753,-65.0055139
Frenos Colo Cor,car repair,,,,,,-31.7399022,-65.0056165
Pangea Vivero,garden centre,,,,,,-31.7391744,-65.0057434
Instrumencar,car repair,,,,,,-31.7394036,-65.0057015
Nando,supermarket,,,,,,-31.7387498,-65.0058406
Fredy Alineacion Mec. Gral.,car repair,,,,,,-31.7382275,-65.0059334
Ramón Cuanto Gourmet,restaurant,,,,,,-31.737154,-65.0060321
Rehobot,convenience,,,,,,-31.7359062,-65.006086
Stop Rally,car wash,,,,,,-31.7355513,-65.0064409
El Pasatiempo,convenience,,,,,,-31.7355254,-65.0059739
Lubri-Car,car parts,,,,,,-31.7349252,-65.006244
Inyección Electrónica,car repair,,,,,,-31.7344519,-65.0061965
Taller Mecánico Brochero,car repair,,,,,,-31.7346723,-65.0057927
Alineación Balanceo,car repair,,,,,,-31.7344282,-65.0057509
Ruta 25 Corralon,trade,,,,,,-31.7888374,-64.9983615
Igui Piletas,yes,,,,,,-31.7750155,-65.0003393
Maderera Arrayan,trade,,,,,,-31.7736252,-65.0003431
ACA Río Cuarto,fuel,,,,,,-33.1164417,-64.3470341
La Familia del Sandwich,fast food,,,,,,-31.7273381,-65.0042584
Gailhou,pharmacy,,,,,,-31.7186734,-65.0052322
Del Valle,convenience,,,,,,-31.7256764,-65.0064629
Las Heras Distribuidora,greengrocer,,,,,,-31.7258706,-65.0064493
Centro de Atención al Ciudadano,oficina: government,,,,,,-31.7306258,-65.0053441
La Ventanita,restaurant,,,,,,-31.7304205,-65.0048769
Asador Criollo,restaurant,,,,,,-31.7694383,-65.0005608
Francisco,convenience,,,,,,-31.7688923,-65.0009855
Vivero Samai,garden centre,,,,,,-31.7683375,-65.000566
Don Carlo Maderera,trade,,,,,,-31.7680733,-65.0010735
Las Colonias,butcher,,,,,,-31.767818,-65.0010476
AVANT,car,,,,,,-33.129644,-64.3833051
Alem Motors,car,,,,,,-33.1250533,-64.3831684
CHEXSUR Division Usados,car,,,,,,-33.1245214,-64.3831715
CHEXSUR,car,,,,,,-33.1254331,-64.3832184
Edificor S.R.L.,hardware,,,,,,-33.1282511,-64.3848586
Gioda S.A.,car,,,,,,-33.124786,-64.3832497
MOTCOR,car,,,,,,-33.1291829,-64.3833145
Makro,wholesale,,,,,,-33.1322061,-64.3828797
Pettiti Automotores,car,,,,,,-33.1286834,-64.3849587
Spinella Hnos.,tyres,,,,,,-33.1449274,-64.3833473
Tagle,car,,,,,,-33.1283716,-64.3832663
El Bodegon,restaurant,,,,,,-31.7439173,-65.0047567
Meba,pharmacy,,,,,,-31.7290456,-65.0048525
Capuchino Café,cafe,,,,,,-31.7281003,-65.0044498
Librería Punto Aparte,books,,,,,,-31.727949,-65.0043905
Panadería Manjares,bakery,,,,,,-31.7281502,-65.0046797
Trafic,cafe,,,,,,-31.726572,-65.0039776
Pharmavida,pharmacy,,,,,,-31.7229362,-65.0039727
El Fogón,restaurant,,,,,,-31.722334,-65.0038355
El Rey,gift,,,,,,-31.7206232,-65.0044956
La Feria,greengrocer,,,,,,-31.7182254,-65.0056497
Pizzeria El Chango,restaurant,,,,,,-31.7177151,-65.0058027
La Gota de Grasa,restaurant,,,,,,-31.7264559,-65.0060677
The Ciru Bulonera,trade,,,,,,-31.7154854,-65.0126359
El Colonial,restaurant,,,,,,-31.7148447,-65.0129631
Confitería Las Maravillas,cafe,,,,,,-31.714611,-65.0131007
Corralón Cura Brochero,trade,,,,,,-31.7140205,-65.0134783
Mueblería Adami,furniture,,,,,,-31.7137933,-65.0135857
Andreazzini,car parts,,,,,,-31.7120515,-65.0146101
Chacinados Vaccari,butcher,,,,,,-31.7119437,-65.0146893
Urquiza,butcher,,,,,,-31.7097949,-65.0162568
Virtus,restaurant,,,,,,-31.7095227,-65.0161219
Pizzería Molto Piu,restaurant,,,,,,-31.7088261,-65.0194164
Tío Dito,restaurant,,,,,,-31.7080744,-65.0198494
Lo De Martin,convenience,,,,,,-31.7931775,-65.0012806
GNC Cruz Alta,fuel,,+54 3467 40 1202,,,,-33.0159069,-61.8181061
Rogas,fuel,"San Martín, Oncativo",,,,,-31.9078494,-63.6876819
La Terminal,fuel,,,,,,-31.6848292,-63.8761509
YPF Barcena,fuel,"San Juan 513, Río Segundo",+54 3572 42 1164,,,,-31.6464239,-63.906254
Intihuan,fuel,,,,,,-31.6599276,-64.4100176
MaxiKiosko de Quique,kiosk,Boulevard Arturo Illia 430,,,,,-31.4229863,-64.1815708
Tienda Fuencarral,clothes,Independencia 365,,,,,-31.4203379,-64.1857832
Tambo,agrarian,"Zona Rural, Plaza Bruno",,,,,-31.5378635,-63.1835233
ETNIA,cafe,,,,,,-31.3593886,-64.5082918
Peña de los hnos Caravajal,restaurant,,,,,,-31.3590862,-64.5082703
Flores,pharmacy,,,,,,-30.9821609,-64.0945008
Salames Monnier,restaurant,,,,,,-31.8981712,-63.6436234
Masajes Reiki,massage,,,,,,-31.3714533,-64.5689359
Fábrica de Pastas,convenience,,,,,,-31.3548931,-64.5940902
Piero Monti,restaurant,,,,,,-31.3614983,-64.55626
Club House,oficina: association,,,,,,-31.4926425,-64.5378731
Román,car repair,,,,,,-32.2079026,-64.397643
Vea,supermarket,Avenida 24 de Septiembre,,,,,-31.4137404,-64.165436
Farmacia Rodriguez,pharmacy,Avenida 24 de Septiembre 1398,,,,,-31.4135894,-64.1648839
TANCAT,clothes,Jacinto Ríos,,,,,-31.4133434,-64.1660195
ESTUDIANTINA,cafe,General Juan José Viamonte 185,,,,,-31.4138287,-64.1647374
Estudiantil,books,General Juan José Viamonte,,,,,-31.4139477,-64.1646945
Nuevo Tiempo,books,Avenida 24 de Septiembre 1372,,,,,-31.4136302,-64.165164
La Perla,restaurant,Avenida 24 de Septiembre,,,,,-31.4133911,-64.1651873
Miradas,clothes,"Avenida San Martín 4110, Colonia Caroya",+543525482237,,,,-31.0232199,-64.0596267
Dispensario Rene Favaloro,oficina: physician,,,,,,-31.3469437,-64.4802704
Ocampo,restaurant,,,,,,-31.4158933,-64.1732723
Farmacia Inda,pharmacy,,+54 3549 42 2508,,,,-30.7439357,-64.7885867
Parrilla Ruta 38 de Vilma y Alberto,restaurant,,,,,,-31.1286341,-64.4809157
"Maderera ""Los Misioneros""",yes,,,,,,-31.1302379,-64.4800077
Zarzamora,restaurant,"Avenida Pueyrredón 622, Capilla del Monte",+54 3548 48 1667,,,,-30.8615318,-64.524194
YPF,fuel,"Corrientes, Inriville",+54 3467 44 3328,,,,-32.9454456,-62.2250705
YPF,fuel,"Ruta Nacional 8, Canals",,,,,-33.5329092,-62.8694344
ACA CANALS,fuel,"Ruta Nacional 8, Canals",+54 3463 42 1048,,,,-33.533415,-62.8682993
Estudio Meinero,oficina: accountant,,,drmeinero@gmail.com,,,-31.4266691,-63.1957054
El Tala,hardware,,,,,,-31.0200181,-64.2740539
La Granja,car wash,,,,,,-31.0074551,-64.2654128
San Nicolas,pharmacy,,,,,,-31.0142304,-64.2706606
Clementina,restaurant,,,,,,-31.0245212,-64.0577274
El Faro,restaurant,,,,,,-30.9924752,-64.0998777
El Pichi,restaurant,,,,,,-30.9917112,-64.0984559
La Friulana,restaurant,,,,,,-31.0135157,-64.070917
La Tablita,restaurant,,,,,,-30.9932445,-64.1012308
Macadam,restaurant,,,,,,-31.0165003,-64.0674241
Mio Noninno,deli,,,,,,-31.008817,-64.0764118
La Buona Pasta de Minga,restaurant,,,,,,-31.0174977,-64.0662627
Estación de Servicios La Granja,cafe,,,,,,-31.007336,-64.2652704
Pochita e hijos,restaurant,,,,,,-31.0067222,-64.2628244
Bodega Riviesse,winery,,,,,,-31.0120144,-64.057009
9 de Julio,butcher,,,,,,-31.0204077,-64.0636399
Adhemar,butcher,,,,,,-31.0234823,-64.0593032
Agustín,butcher,,,,,,-31.0222447,-64.0607178
El Teki,butcher,,,,,,-31.0252802,-64.0646268
Los Plátanos,butcher,,,,,,-31.007632,-64.0778088
Los Querubines,butcher,,,,,,-31.0172772,-64.0664972
El Sótano de Caroya,deli,,,,,,-31.0014024,-64.0847372
Embutidos Bracco,butcher,,,,,,-30.9908311,-64.0967668
Embutidos La Super,butcher,,,,,,-31.0119279,-64.0728044
Estación Caroya,deli,,,,,,-31.0158858,-64.0678174
Finito El Rey del Salame,butcher,,,,,,-31.005338,-64.0801376
Germán Prosdócimo,butcher,,,,,,-30.9933719,-64.0940743
Il Castello,coffee,,,,,,-31.0217069,-64.0615006
Mercadito del Valle,convenience,,,,,,-31.0198647,-64.0651598
Noe-Car,butcher,,,,,,-30.9927657,-64.0952087
Norma Londero,deli,,,,,,-31.0205977,-64.0643322
Sabores de Caroya,deli,,,,,,-31.0231275,-64.0617599
Ferretería FiltGom,hardware,,,,,,-31.0172848,-64.0661304
Ferretería Se-Ro,hardware,,,,,,-31.016479,-64.0670988
Jorge Zaya,hardware,,,,,,-30.9917011,-64.096534
Sanatorio Caroya,clinic,,,,,,-31.0064625,-64.079457
CEDIAN,clinic,,,,,,-30.9803147,-64.0919013
Centro Médico Privado,clinic,,,,,,-30.9805354,-64.0915374
Centro de Atencion Sanatorio Caroya SRL,clinic,,,,,,-30.9765157,-64.0949895
Crecer Centro Integral de Salud,clinic,,,,,,-30.9796156,-64.097431
Pizzeria Don Luis,restaurant,,,,,,-31.4112611,-64.1849294
Farmacia Sastre,pharmacy,,,,,,-31.6546273,-64.4417492
Di-Algra,hardware,,,,,,-31.6498766,-64.4339232
Caramela,ice cream,,,,,,-31.6505934,-64.433993
La Palma,cafe,"Bulevard 25 de Mayo 2028, San Francisco",+54 3564 42 4423,,,,-31.4287608,-62.0886287
Panadería Sangoy,bakery,,,,,,-31.0163788,-64.0671967
Panadería Amilca,bakery,,,,,,-31.0096049,-64.0755362
Corralón,hardware,,,,,,-32.4273593,-63.7362245
Aguadas 12 de Octubre,hardware,,,,,,-32.4255839,-63.7358662
Alimentos Balanceados NutriHer,pet,,,,,,-32.4292884,-63.7343491
Buon Mangiare,restaurant,,,,,,-32.4289993,-63.7347079
Corralón Siadis,hardware,,,,,,-32.4230268,-63.728948
Distribuidor Diesel,fuel,,,,,,-32.4420806,-63.7136034
Ferretería Alberto J. Bossio,hardware,,,,,,-32.4288559,-63.7349128
Pinter,paint,,,,,,-32.4259004,-63.7387325
Viejo Tala SRL,car,,,,,,-32.4301308,-63.7332029
La Granjita,fast food,Alta Gracia,,,,,-31.6526558,-64.4412609
La Mision,bar,,,,,,-31.6573532,-64.4351619
Barrandeguy,pharmacy,,,,,,-31.6607062,-64.427926
Espacio Belgrano y Mayo helados,cafe,Avenida Belgrano 339,,,,,-31.6579167,-64.4297267
Centro del Deporte,clothes,,,,,,-31.6579245,-64.429591
Estación Liniers,fast food,,,,,,-31.6583525,-64.4280824
La Estrella,shoes,,,,,,-31.6581178,-64.4279292
Panadería Villar,bakery,,,,,,-31.0009831,-64.2620062
Centro de Salud,clinic,,,,,,-31.0100317,-64.1144045
Meroli Hogar,electronics,,,,,,-31.0961513,-64.4872935
Megatone,electronics,,,,,,-31.0894474,-64.4887207
Inspección Regional Norte,oficina: educational institution,,,,,,-30.727116,-64.7997386
Muebles Franco,furniture,,,,,,-30.7269405,-64.8008635
Frontera Motors,motorcycle,,,,,,-30.7268318,-64.8010395
Pinturería Colores Tucán,paint,,,,,,-30.7271262,-64.8008763
Brignone Autos,car,,,,,,-32.4339157,-63.728073
Candela Automoviles,car,,,,,,-32.4287148,-63.7304256
Volkswagen,car,,,,,,-32.4352681,-63.7242125
Mariano Max,supermarket,,,,,,-30.9787279,-64.0924439
Dispensario 4,clinic,,+54 358 467 1111,,,,-33.1225311,-64.3400235
Supermercado Delfin,supermarket,"9 de Julio 467, Monte Buey",,,,,-32.9201606,-62.4568531
Cooperativa de Trabajo Al Toque Ltda.,yes,"Sebastián Vera 940, Río Cuarto",+54 358 4637933,,,,-33.1185267,-64.3569366
Espacio San Miguel,restaurant,,,,,,-31.3962448,-64.2510693
Lomos Marcelo,fast food,"Nuevo Mundo 1240, Córdoba",,,,,-31.3842008,-64.1599105
Anush Resto Bar,restaurant,"Avenida Leandro N. Alem 1646, Córdoba",+54 351 4734251,,,,-31.3855472,-64.1590844
Juanjo Lubricentro,car parts,,,,,,-31.0807567,-64.4934992
Juanjo Repuestos,car parts,,,,,,-31.0808145,-64.493446
El Corralón,trade,,,,,,-30.860729,-64.5318041
La Parrilla de Pedro,restaurant,"Bernardino Ance, General Levalle",,,,,-34.0039097,-63.9225885
Taller de Montagut,car repair,,,,,,-34.0041654,-63.9226851
Librería Edith,books,,,,,,-31.391667,-64.1378833
"Pulpería ""La Posta del Indio""",convenience,,,,,,-32.1744115,-64.5735335
La Taba,convenience,"Comechingones, Amboy",,,,,-32.1746705,-64.5738788
Bazar & Deco,variety store,,,,,,-32.1751659,-64.5738865
Las Canitas,cafe,,,,,,-31.4211058,-62.1066951
Shannsi,restaurant,,,,,,-32.1690055,-64.4729427
Salón del Peregrino,oficina: association,,,,,,-33.384767,-64.7236747
Bar Marconi,cafe,"Hipólito Yrigoyen 901, La Carlota",,,,,-33.4177615,-63.2970244
YPF Barale Hnos,fuel,,,,,,-32.168966,-64.1029159
YPF,fuel,"Avenida General Savio 1202, Río Tercero",+54 3571 50 0072,,,,-32.1699416,-64.1176814
YPF,fuel,"Ruta Nacional 1V09 Km 577, Tío Pujio",+54 353 486 0724,,,,-32.28354,-63.3574854
Santo Tomas SRL,fuel,,,,,,-32.0455508,-63.5664631
5 elementos,bar,,,,,,-31.4238499,-64.1871848
Clark's Irish Pub,pub,,,,,,-31.4264675,-64.1846828
Storni,restaurant,,,,,,-31.4191146,-64.1861517
Proveduria,supermarket,,,,,,-31.3959522,-64.2737674
Quercus Restaurant,restaurant,,,,,,-31.9847615,-64.553707
La Genoveva,restaurant,"Ruta Provincial N°5 km 75,5",03546-155003624,,,,-31.9533136,-64.532116
Puma,fuel,"Diagonal Pedro Bruno, Pozo del Molle",+54 353 486 8434,,,,-32.0196119,-62.9243281
Alejandra Stola Peluquería,hairdresser,"Libertad 2112, San Francisco",+543564437346,,,,-31.4310574,-62.0898932
Orígenes,restaurant,,,,,,-31.092017,-64.4852011
Leyendas,bar,,,,,,-31.6521207,-64.4433387
La 26,supermarket,Santa Rosa de Calamuchita,,,,,-32.087904,-64.5343099
Full YPF,cafe,Acceso a General Roca,,,,,-32.7127972,-61.9122124
Don Bosco,pharmacy,,,,,,-31.0037763,-64.0843697
Centro Comercial,mall,,,,,,-30.9856435,-64.4907732
Confitería Marco Polo,bar,,,,,,-31.0931472,-64.4834581
El merendero,bar,,,,,,-31.093211,-64.4839821
Agnessini,pharmacy,,,,,,-31.0903138,-64.4833221
Cabrini,pharmacy,,,,,,-31.0921114,-64.4730656
La Falda,pharmacy,,,,,,-31.0932124,-64.4858907
Las nubes,cafe,,,,,,-31.0930906,-64.4824325
Panadería El hornero,bakery,,,,,,-30.9816121,-64.4919288
Papelera Valzacchi,stationery,,,,,,-31.0939013,-64.4865437
Parrila El quincho,restaurant,Huerta Grande,,,,,-31.0810683,-64.4918486
Parrilla Avenida,restaurant,,,,,,-31.0932379,-64.4842147
Pastilandia,restaurant,,,,,,-31.0933163,-64.4852348
Restaurant Huguito,restaurant,Huerta Grande,,,,,-31.068926,-64.493627
Restaurant Tomaso Di Savoia,restaurant,,,,,,-31.0928476,-64.4789316
Supermercado Cordiez,supermarket,,,,,,-31.0896457,-64.4860225
Vinoteca La Falda,wine,,,,,,-31.0937606,-64.4863243
Vinoteca,wine,,,,,,-31.0907902,-64.4846553
Vivero,garden centre,,,,,,-31.0978186,-64.4853052
Tuti Alquileres,hardware,,,,,,-33.0973483,-64.3699671
Agro Partes,car parts,,,,,,-33.1418427,-64.3554309
Barale Mayorista,supermarket,,,,,,-33.1421334,-64.3555284
Escapes Sabattini,car repair,,,,,,-33.1403326,-64.3549665
Fayco Repuestos,car parts,,,,,,-33.1396486,-64.3547804
Impulso Repuestos,car parts,,,,,,-33.1412005,-64.3552357
Juan Carlos Plenasio,car parts,,,,,,-33.1406978,-64.3550776
La Casa del Mercedes,car repair,,,,,,-33.1414304,-64.3552947
Marta Florian Herrajes,hardware,,,,,,-33.1416489,-64.3553719
Miler S.A.,car repair,,,,,,-33.1401597,-64.3549097
Bridgestone,tyres,,,,,,-33.143355,-64.3554808
Nuevo Horizonte S.A.,car parts,,,,,,-33.1436703,-64.3559754
Pirelli,tyres,,,,,,-33.1402624,-64.3544798
Río Cuarto,paint,,,,,,-33.1394511,-64.3542336
Prodel SRL,hardware,,,,,,-33.1411207,-64.3547502
Vettore Repuestos,car parts,,,,,,-33.1415522,-64.3548753
Paseo de los Artesanos,musical instrument,,,,,,-32.0648141,-64.5418001
El Paseo,mall,Libertad 50,,,,,-32.1732595,-64.110576
Ponte,pharmacy,,,,,,-32.1758462,-64.1054802
Hiper Luconi,supermarket,,,,,,-32.1753209,-64.1040568
Siete Mares,restaurant,,,,,,-31.8713766,-65.032507
Instituto Oulton,clinic,,,,,,-31.4217545,-64.1896925
Laboratios LACE,doctors,,,,,,-31.4216445,-64.1896226
El Vergel,cafe,"Avenida Monseñor Pablo Cabrera 2885, Córdoba",,,,,-31.3776393,-64.2071611
Fabrica de Sandwich,fast food,"Bulevar Los Granaderos, Córdoba",,,,,-31.3763645,-64.2074042
Repuestos de Autos,car parts,"Bulevar Los Granaderos, Córdoba",,,,,-31.376295,-64.2075989
Peluquería Fabi,hairdresser,"Bulevar Los Granaderos, Córdoba",,,,,-31.3762542,-64.2077581
Sangoy,bakery,"Calle 14 - Raimundo Coseani (S) 99, Colonia Caroya",,,,,-31.0032214,-64.0846285
Kitty,convenience,Pedro Medrano,,,,,-31.4352432,-64.1202349
Carnívoro (Carnicería),convenience,"Avenida Libertador Norte, San Francisco",,,,,-31.4216816,-62.0834257
Sanatorio,clinic,,,,,,-31.1541877,-63.3996186
Shopping Villa María,supermarket,,,,,,-32.3870659,-63.2423489
Ruycuer,clothes,,,,,,-31.8713642,-62.7271177
Miguelito,supermarket,,,,,,-31.8699072,-62.7239954
Bar Bicentenario,cafe,,,,,,-31.8737149,-62.7197636
Pèkoç s,kiosk,,,,,,-31.8730214,-62.7173092
Patio Sierras Multishop,supermarket,"Avenida San Martín 3622, Unquillo",,,,,-31.2184859,-64.3178404
El Trebol,bakery,,,,,,-31.4384976,-62.0688533
Estación San Benito,fuel,Avenida San Martín,,,,,-31.3708057,-64.0531257
ceramica nanini,yes,,,,,,-31.0152734,-64.0606312
Cafetería Sede Social Sociedad de Beneficencia,cafe,,,,,,-32.0350336,-63.8640165
Escuela República de Líbano,oficina: educational institution,"Héctor Álvarez Igarzabal 1248, Córdoba",+54 351 481 8533,,,,-31.3812865,-64.23847
Panificadora-La familia de Angela,bakery,,,,,,-31.0183,-64.0637948
Comedor del Club Social y Deportivo Altos de Chipión,restaurant,,,,,,-30.955027,-62.3391048
Centro Materno Municipal,clinic,"Los Nogales, Córdoba Capital",,,,,-31.3922038,-64.1411308
Instituto Gral. Josè Marìa Paz,oficina: educational institution,"Mariano Moreno 480, Monte Buey",,,,,-32.9189353,-62.4567439
Panadería San Francisco,bakery,"Bulevar Sáenz Peña, San Francisco",,,,,-31.4351834,-62.0875301
Lotus Resto Bar,fast food,"Rivadavia, San Francisco",,,,,-31.4348831,-62.0875252
Inspección de nivel Inicial,oficina: educational institution,,,,,,-31.947637,-65.1861748
Oriental,supermarket,,,,,,-31.9465286,-65.1863867
Oficina - Coop. Agrop. La Federación Ltda.,oficina: yes,"San Martín 232, Oliva",,,,,-32.0396258,-63.569581
Bodega Las Breas,winery,,,,,,-31.9578497,-65.0946028
Dispensario El Simbolar,clinic,,,,,,-30.6621578,-64.8924441
Martha Arias,pharmacy,"Avenida San Martín 2247, Unquillo",+54 3543 48 6797,,,,-31.2343011,-64.3170927
Centro De Rehabilitación de Sierras Chicas,clinic,"Río Negro 441, Unquillo",,,,,-31.241058,-64.3094163
Supermercado Almacor,supermarket,,,,,,-31.2409548,-64.4662948
Machin,supermarket,,,,,,-32.0265141,-65.0306224
Restaurante Plaza,restaurant,,,,,,-32.0264488,-65.0306178
El Remanso,supermarket,,,,,,-31.3564867,-64.5896688
Casa de la Cultura,oficina: government,,,,,,-31.2733898,-64.167556
Premier,supermarket,,,,,,-31.5591128,-63.5387632
Supermercado La Bomba,supermarket,,,,,,-32.6953036,-62.1113274
YPF,fuel,"Avenida San Martín 752, Villa Dolores",,,,,-31.9509262,-65.1821554
Shell,fuel,"Avenida Belgrano 1116, Villa Dolores",+54 3544 42 0758,,,,-31.9476159,-65.1749065
Las Moritas,restaurant,,,,,,-32.0615774,-65.0219328
La K'sita,restaurant,,,,,,-32.2167488,-65.0485618
Autoservicios La Paz,supermarket,,,,,,-32.2171844,-65.049093
La Esencia,restaurant,,,,,,-32.2174764,-65.0491266
El Cierbo,bar,,,,,,-32.2181944,-65.0490096
Delfin Supermercado,supermarket,,,,,,-31.7140051,-64.4043867
Al Dente,restaurant,,,,,,-31.7967052,-65.0042205
Sol de Nono,convenience,,,,,,-31.7966226,-65.0039138
El Nazareno,confectionery,,,,,,-31.7966169,-65.004182
Lorca,pharmacy,"Sarmiento 270, Nono",+54 3544 49 8356,,,,-31.7953867,-65.0015193
Piu Avanti,restaurant,,,,,,-31.7999747,-65.005105
Rumyhuasi,restaurant,,,,,,-31.7974603,-65.0041601
San Cayetano,supermarket,,,,,,-31.7957913,-65.0032463
Santtana,clothes,,,,,,-31.7971053,-65.004026
Gulf,fuel,,,,,,-31.4147198,-64.5036508
YPF,fuel,"Ruta Provincial 15 Km 86, Alto Grande",+54 3542 49 9300,,,,-31.514095,-65.1114848
Gulf,fuel,"Ramón J. Cárcano 65, Villa Dolores",+54 3544 42 4803,,,,-31.946924,-65.19023
Bar La Estación,bar,"Avenida Jose Maria Gómez, Santa Rosa de Calamuchita",,,,,-32.0644862,-64.5399537
Sol,fuel,,,,,,-32.3219336,-64.2824827
YPF,fuel,"Doctor Berrotarán Km 678, Berrotarán",+54 358 494 0812,,,,-32.45532,-64.38556
YPF,fuel,"Ruta Nacional 1V09 Km 530, Ballesteros",+54 353 473 0311,,,,-32.5379011,-62.9803355
Axion,fuel,"25 de Mayo 891, Marcos Juárez",+54 3472 45 6314,,,,-32.6945631,-62.1034769
Bandera Blanca,fuel,"Pablo Maino, General Roca",+54 3472 49 1243,,,,-32.7202364,-61.9157769
Dapsa,fuel,"Avenida Buenos Aires 1249, Santa Catalina",+54 358 506 8008,,,,-33.210258,-64.4395027
YPF,fuel,"Güemes Km 856, Sampacho",+54 3582 42 0920,,,,-33.3911851,-64.7227509
Axion,fuel,"Francisco Torres, Vicuña Mackenna",,,,,-33.9142612,-64.389069
Axxion,fuel,,,,,,-31.3571569,-64.3175343
Shell,fuel,"Avenida Patria 1130, Córdoba",,,,,-31.4010716,-64.1606869
Bladymir.com,computer,"Calle 20 - Sabino Garione (S) 213, Colonia Caroya",,,,,-31.009307,-64.0802327
Supermercado Caroya,supermarket,,,,,,-31.0109612,-64.0759166
Electrolider,hardware,,,,,,-31.0111258,-64.0756827
Marcam,hardware,,,,,,-31.0119846,-64.0743838
La Manzana,greengrocer,,,,,,-31.0177521,-64.0636396
Electricidad Strasorier,hardware,,,,,,-31.0171305,-64.0663429
Shell,fuel,"Avenida La Voz del Interior 7451, Los Boulevares",+54 351 241-8617,,,,-31.3306647,-64.2106571
Puma Rupo Carlos Jorge,fuel,"Avenida Amadeo Sabattini, Córdoba",,,,,-31.4314825,-64.1382753
Shell,fuel,"Avenida Amadeo Sabattini, Córdoba",,,,,-31.4583858,-64.1095709
Bandera Blanca,fuel,"Maipú, Canals",+54 3463 42 0783,,,,-33.5653161,-62.8772977
Shell,fuel,"Ruta E-55 264, La Calera",,,,,-31.3494513,-64.33684
WICO,fuel,"Malvinas Argentinas, Canals",,,,,-33.5594343,-62.8751801
Axion,fuel,"Boulevard Hipólito Yrigoyen 1101, Morteros",+54 3562 42 2146,,,,-30.7136158,-62.0041586
Axion,fuel,"Hipólito Yrigoyen 207, Laguna Larga",+54 3572 48 0116,,,,-31.773877,-63.804021
Axion,fuel,"Avenida 9 de Julio, Coronel Moldes",+54 3582 59 4526,,,,-33.6262717,-64.6040077
Axion,fuel,"Fray Luis Beltrán, Huinca Renancó",,,,,-34.8389383,-64.3702446
Shell,fuel,"Avenida Sagrada Familia 1048, Córdoba",,,,,-31.3888984,-64.2306174
Shell,fuel,"Avenida Pablo Ricchieri 2626, Córdoba",,,,,-31.4417941,-64.1768497
Esc. Mariano Moreno,oficina: educational institution,"Gabriela Mistral 318, Las Varas",,,,,-31.8036658,-62.6175909
Ferretería Rosales,hardware,,,,,,-31.9441385,-65.191758
Pakton,clinic,"Hipólito Yrigoyen, Capilla del Monte",,,,,-30.8572949,-64.5277894
Axion,fuel,"Ruta Provincial 1, Freyre",+54 3564 46 1335,,,,-31.176536,-62.1029377
Centro Educativo Mariano Moreno,oficina: educational institution,"Berutti 29, Capilla del Monte",,,,,-30.8608181,-64.5146936
CLUB- BAR DE VILLA ESQUIU,bar,,,,,,-31.3677139,-64.109191
Matar Ariel,supermarket,"Emilio Genoud 987, General Levalle",,,,,-34.0083197,-63.9171542
CENTRO EDUCATIVO OBISPO ESQUIU- 250 alumnos,oficina: educational institution,,,,,,-31.3590448,-64.1076981
Medic Emergencias Médicas,clinic,"Avenida Carlos Pellegrini 30, Laboulaye",,,,,-34.1291723,-63.3907736
LAC,oficina: company,,,,,,-31.0253395,-64.115836
La Mora,restaurant,,,,,,-30.9526751,-63.8874457
Julia,books,"Luis Braille, Córdoba",,,,,-31.4319654,-64.1559072
Karenke,pharmacy,"Diagonal Buenos Aires (Techada), Capilla del Monte",,,,,-30.8585414,-64.5249005
El Gallo Claudio,cafe,,,,,,-33.1322426,-64.3446292
CR,copyshop,"Humberto Primo 700, rio cuarto",,,,,-33.1320388,-64.3448974
La Quemada,bar,,,,,,-31.3217196,-63.1877481
YPF,fuel,"Avenida Los Paraisos 109, La Calera",+54 3543 46 6291,,,,-31.3496926,-64.3400134
empresa de tanques,oficina: company,,,,,,-31.3732697,-64.1093679
Bar Imperial,cafe,,,,,,-31.8710867,-62.7178295
Pik Panter,fast food,"Santa Rosa 998, Córdoba",,,,,-31.4072722,-64.2004603
Joyería Juarez,jewelry,"Avenida Colón 123, Córdoba",,,,,-31.4082772,-64.2008344
Librería TITO,books,,,,,,-31.453464,-64.2226457
La Central,bakery,"Av. 9 de Julio, Coronel Moldes",,,,,-33.6231847,-64.5984245
Munich - café y confitería,cafe,"Sarmiento y Avenida San Martín, Cosquín",,,,,-31.2430503,-64.4656544
La Europea - Confitería y cafetería,cafe,"Amadeo Sabattini y Presidente Perón, Cosquín",,,,,-31.2419982,-64.4666591
Cosquin,pharmacy,,,,,,-31.2411082,-64.4664227
Ravetta,paint,,,,,,-33.6287014,-64.0204386
TATE,shoes,"General Paz 897, Río Cuarto",,,,,-33.1254224,-64.3478355
KILROY,shoes,"Hipólito Yrigoyen 865, Río Cuarto",,,,,-33.1253777,-64.3467413
Grimoldi,shoes,"Vélez Sarsfield 60, Rio Cuarto",,,,,-33.1245363,-64.3483164
La despensa de Emma,supermarket,,,,,,-30.8559325,-64.5287539
Matias Max,supermarket,,,,,,-30.8585698,-64.5258227
Kafka,cafe,,,,,,-30.8583947,-64.52471
Per Tuti,restaurant,,,,,,-30.8583031,-64.5248563
VETERINARIA RUSCONI,veterinary,,,,,,-31.2240921,-64.3191597
Pomiro II,pharmacy,"Avenida San Martín 3566, Unquillo",+54 3543 48 5792,,,,-31.2232171,-64.3196675
Patio Sierras,supermarket,,,,,,-31.2225418,-64.3195137
"Clínica ""Hominis""",clinic,"Coronel Punch 118, Oncativo",+54 3572 46 6840,,,,-31.9142604,-63.6847229
Sala de Primeros Auxilio,clinic,,,,,,-32.0641128,-65.028552
Crazy,restaurant,,,,,,-31.9446946,-65.1909821
Confitería,cafe,,,,,,-32.0386966,-65.0376014
Autoservicio,supermarket,,,,,,-32.0374504,-65.0370105
Quebracho,butcher,,,,,,-32.028156,-65.030244
Quito,convenience,,,,,,-31.5875783,-64.4592758
La Justina,restaurant,,,,,,-31.5902483,-64.4573928
Celulares Gustavo,mobile phone,,,,,,-33.1227057,-64.3482408
El Amigo,veterinary,,,,,,-31.7250068,-65.0065222
Almacén,convenience,"Sarmiento esquina 25 de Mayo, Oncativo",,,,,-31.9183338,-63.6806771
Consulado de Bolivia,oficina: diplomatic,"Figueroa Cáceres 368, Córdoba",,,,,-31.4157458,-64.2034127
Lavadero Sprint,car wash,,+54 353 656 0403,,,,-32.4137353,-63.2321635
La Estancia,restaurant,,+54 353 452 3795,,,,-32.4160326,-63.2321504
Pellegrini,bakery,,,,,,-32.4165883,-63.2336226
Vivero Aquesta,garden centre,,,,,,-32.4154496,-63.2333348
Bariloche,bakery,,,,,,-32.4105211,-63.2257678
Farmacia Fontanetto,pharmacy,Boulevard Sarmiento 1311,+54 353 452 0598,,,,-32.4162713,-63.2354143
La Moderna,cafe,,,,,,-31.0111279,-62.6686114
Pericles,bar,,,,,,-31.7227087,-65.0036738
La Parrilla de Nahuel,restaurant,,,,,,-31.7256402,-65.003927
Mar Fer,supermarket,,,,,,-31.8576962,-64.976361
Nova Voce,restaurant,,,,,,-31.8357358,-64.989854
Rotisería,food,,,,,,-33.183949,-64.9967544
La Merced,bakery,,,,,,-33.1763502,-64.9941225
Repuesto de Motos,car parts,,,,,,-33.1749645,-64.993697
Dispensario Municipal Achiras,clinic,"Avenida General Cabrera, Achiras",(03582) 49-5019/49-5249,,,,-33.1758543,-64.9957987
El Gato,convenience,,,,,,-30.8937042,-63.003481
Pub Bailable,pub,,,,,,-33.1769267,-64.9943438
Bin,supermarket,,,,,,-31.4110878,-64.1850844
Sosa,convenience,,,,,,-31.3175189,-65.0893719
Vimar,supermarket,,,,,,-31.3167284,-65.0906232
Parque Norte,bakery,,,,,,-32.3914313,-63.2477548
Lancelot,clothes,,,,,,-32.3973373,-63.2433893
Las Amigas,restaurant,,,,,,-30.8517787,-64.98634
La Fiambreria,supermarket,"Alvear, Villa de Soto",+54 3549 48 0365,,,,-30.8550169,-64.9842559
Alegratto,ice cream,,,,,,-31.9457574,-65.0509582
Las Rosas,supermarket,,,,,,-31.9462041,-65.0511765
Luna Morena,restaurant,,,,,,-31.9465307,-65.0526457
La Paz,supermarket,,,,,,-31.9470956,-65.0528216
Cosenza,restaurant,,,,,,-31.9474561,-65.0529728
Oiga Bonita,kiosk,,,,,,-31.9475083,-65.0528311
Cuartito Azul,restaurant,,,,,,-31.9477937,-65.0519579
Rogoni,pharmacy,,,,,,-31.9502376,-65.053944
SC,fuel,Avenida Batalla de San Calá,,,,,-31.1731308,-65.1015886
Mercadito,supermarket,,,,,,-30.8553847,-64.9834715
Luna,pharmacy,,,,,,-30.8553291,-64.9833007
Brazilia,restaurant,,,,,,-30.8560197,-64.9853074
El Apache,restaurant,,,,,,-30.8531923,-64.9922508
Eluani,pharmacy,,,,,,-30.8571065,-64.9886657
Forrajeria,supermarket,,,,,,-30.8560853,-64.9862127
Ahumada,pharmacy,,,,,,-31.3181921,-65.0899366
Diaz,pharmacy,,,,,,-30.8561865,-64.9857853
Gomaería,car repair,,,,,,-30.8525322,-64.9848323
Flavia,oficina: estate agent,"Bucarest, Villa Giardino",,,,,-31.0494371,-64.4866788
El Señor de los Novillos,butcher,Huerta Grande,,,,,-31.0756967,-64.492564
El Rafa,greengrocer,Villa Giardino,,,,,-31.0529607,-64.5003432
Angélica,ice cream,Villa Giardino,,,,,-31.0507112,-64.4967342
La Rosa Blanca,restaurant,Villa Giardino,,,,,-31.0505544,-64.5020796
Parrilla,restaurant,Huerta Grande,,,,,-31.0661531,-64.4987891
Avenida,kiosk,"Avenida San Martín 781, Villa Giardino",,,,,-31.0496043,-64.4917674
Gran Rex,laundry,Salta 55,,,,,-31.4169197,-64.1785583
Goio-Grebe,veterinary,Villa Giardino,,,,,-31.0530808,-64.498887
Giardino,veterinary,"Bulevar Las Flores 217, Villa Giardino",,,,,-31.0522968,-64.4998328
Grido,ice cream,Villa Giardino,,,,,-31.0506172,-64.4965992
Le Poulet,yes,Villa Giardino,,,,,-31.0497772,-64.4929415
Sapo DVD,video,Villa Giardino,,,,,-31.050763,-64.4964123
Parador Del Valle,convenience,,,,,,-31.3955072,-64.7525244
Parilla,restaurant,,,,,,-31.396556,-64.7539262
DSMIT,oficina: company,"9 de Julio 749, General Levalle",,,,,-34.0088019,-63.9205948
Pizza Ranch,restaurant,Avenida Libertad 370,,,,,-31.4200538,-64.4912043
Dionisio,gift,,,,,,-31.7967478,-65.0023617
Mil Sabores,ice cream,,,,,,-31.7976253,-65.0020283
La Vieja Esquina,restaurant,,,,,,-31.7968021,-65.002028
Lo de Naum,restaurant,,,,,,-31.7966476,-65.0027847
Lo de ellos,shoes,,,,,,-31.796518,-65.0027825
Paulitos,yes,,,,,,-31.7977043,-65.0018115
Loteria de Cordoba,lottery,,,,,,-31.796866,-65.0016625
Fanny,restaurant,,,,,,-31.7967934,-65.0017999
"Camara de comercio, turismo, industria y emprendedores de Nono",oficina: association,,,,,,-31.7977789,-65.0023694
Cedron,gift,,,,,,-31.7976779,-65.0028273
Crelech,confectionery,,,,,,-31.7976599,-65.0029304
La Pulperia,restaurant,,,,,,-31.7976024,-65.0032546
Carnes Roberto,butcher,,,,,,-31.4855778,-64.2049145
Full,convenience,,,,,,-31.4878219,-64.2062964
Amazonas 2,pharmacy,,,,,,-31.4222376,-64.180162
Brizuela,pharmacy,Boulevard Arturo Illia,,,,,-31.4228638,-64.1788252
Mostachys,fast food,Boulevard Chacabuco,,,,,-31.4226595,-64.1824992
Super buenos dias,supermarket,,,,,,-31.4235216,-64.1829557
Cafe Los Dos Chinos,cafe,,,,,,-31.4316369,-64.1917137
Fate Neumaticos,car repair,,,,,,-31.4342805,-64.1949039
Pan Ledonne,bakery,,,,,,-31.4532838,-64.2009421
Sushi World,restaurant,,,,,,-31.4298583,-64.1871383
CNRT,oficina: government,,,,,,-31.4226419,-64.1754912
Cafe Panorama,cafe,,,,,,-31.4231014,-64.17496
Caffe company,cafe,,,,,,-31.4225476,-64.1756766
Ente Regulador de los Servicios Públicos,oficina: government,,,,,,-31.4227027,-64.175445
Subway,fast food,,,,,,-31.4230105,-64.1748569
Alemana,pharmacy,,,,,,-31.4192772,-64.1769273
Ricardo Risatti SACIF,car,,,,,,-34.1237492,-63.3873251
Enrique,bicycle,,,,,,-31.351229,-64.2498752
Nepper cafe,cafe,,,,,,-31.3496817,-64.2527048
Vittorio,restaurant,Carlos Federico Gauss 5759,,,,,-31.3557802,-64.2506956
Wow! Papeleria,stationery,,,,,,-31.3542103,-64.2500512
Pan,bakery,,,,,,-31.3614946,-64.2527442
César Malpassi SRL,trade,,,,,,-33.2793327,-62.191093
Shell,fuel,"Boulevard Hipólito Yrigoyen, Morteros",+54 3562 42 2557,,,,-30.7109217,-62.004015
YPF,fuel,Morteros,,,,,-30.7173029,-62.003261
Shell,fuel,"Bv. 25 de Mayo 513, Freyre",+54 3564 46 1303,,,,-31.1632027,-62.1001929
YPF,fuel,"Córdoba, San Francisco",,,,,-31.4306866,-62.0876125
Shell,fuel,"Bulevar Sáenz Peña, San Francisco",,,,,-31.4382771,-62.0687739
Beto's,fast food,,,,,,-31.3622021,-64.2376377
Choricheto,fast food,,,,,,-31.3521677,-64.2493374
El Club de la milanesa,restaurant,,,,,,-31.3602972,-64.2382685
Los Arcos,restaurant,,,,,,-31.3830396,-64.222344
Sofra com arabe,restaurant,,,,,,-31.3729503,-64.229547
Soppelsa,ice cream,,,,,,-31.3575494,-64.2404211
Valentinas resto bar,restaurant,,,,,,-31.371928,-64.230442
YPF,fuel,"Avenida San Martín, Cruz Alta",+54 3467 40 1202,,,,-33.0064505,-61.8132987
Don Casimiro,butcher,,,,,,-31.4043387,-64.1943962
Consulado General de Perú,oficina: diplomatic,"Humberto Primo 749, Córdoba",+54 351 4264196,,,,-31.407263,-64.1919889
Floreria Para ti,florist,,,,,,-31.4011994,-64.1966452
Repuesto Automotor,car repair,,,,,,-31.4068869,-64.1932065
Antiguo,antiques,,,,,,-31.4084427,-64.1916045
A&M,cafe,"Avenida Colón 428, Córdoba",,,,,-31.4118272,-64.188862
Bonafide,cafe,"Avenida Figueroa Alcorta 192, Córdoba",,,,,-31.4115455,-64.191091
Café Martínez,cafe,"Avenida Figueroa Alcorta 181, Córdoba",,,,,-31.4115591,-64.1917352
Centro Integral Odontológico,dentist,"Mariano Fragueiro 267, Córdoba",,,,,-31.4101847,-64.1925271
Las Chilcas Grill & Wine,restaurant,"Avenida Figueroa Alcorta 252, Córdoba",,,,,-31.4107641,-64.1907104
Lavarropa,laundry,,,,,,-31.4136493,-64.1937948
Muebles El Bosque,furniture,"Avenida Castro Barros 359, Córdoba",,,,,-31.4017491,-64.195944
Corro,hardware,,,,,,-31.4141627,-64.1937135
Bar Sorocabana,cafe,,+543514227872,,,,-31.4175452,-64.1832646
Budget,car rental,,,,,,-31.4175692,-64.1824922
Consulado de Francia,oficina: diplomatic,"Ayacucho 46, Córdoba",+54 351 4290915,sonzini@arnet.com.ar,,,-31.4165153,-64.1868142
Gloria,bakery,,,,,,-31.4154287,-64.1897042
Farmavirtual,pharmacy,,,,,,-31.4169347,-64.185531
Eluney,ice cream,,,,,,-30.9155286,-62.6791881
Ristagno,hardware,,,,,,-31.4113548,-64.1819502
Despensa La Rotonda,convenience,,,,,,-32.0575305,-64.5616843
YPF,fuel,"Manuel Belgrano Oeste, Piquillín",+54 3574 49 4020,,,,-31.3006323,-63.7616209
YPF,fuel,"Avenida Manuel Belgrano 19, Monte Cristo",+54 351 491 7202,,,,-31.3459203,-63.9484077
YPF,fuel,"San Martín, Sebastián Elcano",,,,,-30.1609022,-63.5942776
Shell,fuel,"Ruta Provincial E-57 - Río de Janeiro 48, Villa Allende",,,,,-31.2873028,-64.2939403
Puma,fuel,Bulevar Guzmán,,,,,-31.4116637,-64.1754282
Shell Santa Barbara,fuel,,,,,,-31.4256745,-64.0886275
Shell,fuel,"Avenida Ciudad de Valparaíso, Córdoba",,,,,-31.4647553,-64.1870676
Alma Dórica,restaurant,,,,https://www.instagram.com/almadorica/,https://www.facebook.com/alma.dorica/,-31.4312585,-64.1896408
Shell,fuel,"Bulevar Mitre 283, Sacanta",+54 3533 42 3119,,,,-31.6648296,-63.0536665
YPF,fuel,"Ruta Provincial 13, Calchín",+54 3573 49 7156,,,,-31.6653611,-63.2050069
Shell,fuel,"Bartolomé Mitre 301, Las Varillas",+54 3533 42 2334,,,,-31.8755019,-62.7166711
Shell,convenience,"San Martín 1520, Oncativo",+54 3572 46 6288,,,,-31.9217674,-63.6755825
Shell,fuel,"Roque Saenz Peña, Oliva",,,,,-32.0394275,-63.5717609
Don Angel,fuel,,,,,,-32.0430962,-63.5794074
YPF,fuel,"Hipólito Yrigoyen, Ticino",+54 358 412 0653,,,,-32.6905105,-63.4377763
YPF,fuel,"9 de Julio, San Basilio",+54 3585 49 1021,,,,-33.4961186,-64.3100734
YPF,fuel,"Saavedra 27, Coronel Moldes",+54 3582 48 2884,,,,-33.6218097,-64.5931376
YPF,fuel,"Carlos Gardel, Del Campillo",,,https://www.instagram.com/ypf.alfredocardinalehijos/,,-34.3782981,-64.4909891
Gulf,fuel,"Vicente López, Del Campillo",,,,,-34.3813019,-64.4930648
YPF,fuel,"Ruta Nacional 35 Km 529,9, Huinca Renacó",,,,,-34.8061085,-64.3710697
DC Combustibles,fuel,"General Paz 885, La Laguna",+54 353 488 0345,,,,-32.8076623,-63.2434688
Shell,fuel,"Bartolomé Mitre 85, Idiazabal",,,,,-32.8152365,-63.0377051
YPF,fuel,"Avenida Circunvalación, Justiniano Posse",,,,,-32.891227,-62.680134
Shell,fuel,"Ruta Provincial 4 232, Etruria",,,,,-32.9354878,-63.2467544
Estación de Srvicios EZELA,fuel,"Bolivia 12, Ucacha",+54 353 443 1615,,,,-33.0321444,-63.5118961
YPF,fuel,"25 de Mayo, General Baldissera",+54 3468 43 4960,,,,-33.1212014,-62.2992889
YPF,fuel,"Roque Saenz Peña, Pascanas",+54 353 489 8030,,,,-33.1264173,-63.0374012
Servipampa,fuel,"Ruta Provincial 11, Wenceslao Escalante",+54 3537 48 0004,,,,-33.1755784,-62.7790807
YPF,fuel,"Hipólito Yrigoyen 379, La Carlota",+54 3584 42 0489,,,,-33.4136944,-63.2959648
YPF,fuel,"Avenida Río de la Plata 401, Guatimozín",+54 3468 49 5004,,,,-33.4612244,-62.4397127
Fernández hnos,fuel,"Hipólito Yrigoyen, Alejo Ledesma",,,,,-33.6061316,-62.6252181
YPF,fuel,"Ruta Nacional 8 Km 410, Arias",+54 3468 44 0626,,,,-33.6269097,-62.3991114
YPF,fuel,"Avenida del Cincuentenario 99, Huanchilla",+54 3584 49 2065,,,,-33.664713,-63.637451
Más,fuel,"Acceso a Viamonte, Viamonte",+54 3463 49 8127,,,,-33.7422167,-63.0967311
Zagreo,restaurant,,,,,,-31.0240028,-64.4722539
YPF,fuel,"9 de Julio 395, Serrano",+54 3385 49 5086,,,,-34.4699982,-63.5417397
Cuatro Vientos,restaurant,,,,,,-31.893702,-64.7763189
Don Higinio SRL,oficina: company,,,,,,-33.6289137,-62.405777
Mariachi,restaurant,"Avenida 24 de Septiembre, Córdoba",,,,,-31.4144234,-64.1688688
Septiembre,restaurant,Avenida 24 de Septiembre,,,,,-31.4144453,-64.1689458
La Caba,restaurant,Avenida 24 de Septiembre,,,,,-31.4144852,-64.16917
El Club De La Milanesa,restaurant,Avenida 24 de Septiembre,,,,,-31.4145968,-64.1689248
Supermercado La Proveduría Mutual,supermarket,,,,,,-30.9850838,-64.0871823
Late,restaurant,"Achával Rodríguez 152, Córdoba",+54 351 226-1894,,,https://www.facebook.com/LATE-1659844234248252/,-31.4247807,-64.1899679
Arriaga,pharmacy,"Vélez Sarsfield 34, Las Varillas",+54 3533 420832,,,,-31.8729558,-62.7209574
Pub-Felia,cafe,"Carlos Pellegrini 103, General Levalle",,,,,-34.0114273,-63.9244955
Los Dos Chinos,supermarket,"Carlos Pellegrini, General Levalle",,,,,-34.0109697,-63.924382
La Vecchia,restaurant,"Obispo Ferreyra 770, Villa del Rosario",,,,,-31.5548134,-63.5358606
Cuba Pub,bar,"La Rioja y Sobremonte, Río Cuarto",,,,,-33.1279035,-64.3498343
El lomo y Cía,restaurant,"Avenida Italia 1100, Río Cuarto",+5493584622622/+5493284223397,,,,-33.1276332,-64.350904
Supermercado Mau Mar,supermarket,"Florentino Ameghino, Cruz del Eje",,,,,-30.7172051,-64.814531
Taller Mecánico Migliore,car repair,"Ruta 16, Cruz del Eje",,,,,-30.7194398,-64.8206661
Supermercado Costa Azul,supermarket,"Juan Sebastián Bach 518, Villa Carlos Paz",,,,,-31.3931874,-64.464124
Boliche de la legua,bar,,,,,,-33.6496185,-64.6509557
Lo de Rojas,bar,"Calle Pública, Cañada de Salas",,,,,-31.3054239,-65.196293
PIntureria Central,paint,,,,,,-33.1280492,-64.3486319
Prego,ice cream,,,,,,-32.4146393,-63.2564632
Buen Día,bakery,,,,,,-32.4143428,-63.2604054
La Casa de Don Rosendo,restaurant,"Ruta Provincial 14, Nono",,,,,-31.832292,-64.9917692
"Ex ""Boliche Nicola""",bar,,,,,,-32.0784543,-63.9848817
C. de Ganaderos,oficina: association,Salgueiro 141,,,,,-34.8407716,-64.5849717
IPEM 131 Juan Gabriel Brochero,oficina: educational institution,San José,,,,,-31.9556883,-65.3124168
Dispensario,oficina: physician,SAN JOSE,,,,,-31.9575661,-65.3122285
San Leonardo,restaurant,"Luis Lozano 94, Agua de Oro",+54 351 398 8800,,,,-31.0686591,-64.2986774
Brandalissi,funeral directors,,,,,,-30.976052,-64.092525
Liberty Decoraciones,gift,Avenida General Paz,+54 3541 43 7570,,,,-31.4220309,-64.4951532
Hostería;Restaurante Potrerillo Larreta,restaurant,,,,,,-31.6457092,-64.4879613
C.I.C. Centro Integrador Comunitario,oficina: company,"Salta 2902, Villa Maria",+543534611039,,,,-32.3944405,-63.2287741
Supermercado Maurino,supermarket,"Bulevar Colon, Bell Ville",,,,,-32.614459,-62.6945442
Forrajeria Don Andres,pet,"Avenida Pellegrini 1432, Cruz del Eje",,,,,-30.7169757,-64.8166889
Depósito de Obras y Servicios Públicos de la Municipalidad de Córdoba,oficina: government,,,,,,-31.4032714,-64.2678001
Magra,supermarket,,,,,,-34.1291432,-63.3912712
San Lucas,clinic,"España 71, Laboulaye",+54 3856 42 6112,clinicaprivadasanlucas@hotmail.com,,,-34.1246892,-63.3876048
Soho,restaurant,Boulevard Dante Alighieri,,,,,-32.4190522,-63.2541068
Santo,restaurant,Boulevard Ramón Carcano,+54 353 482 7910,,,,-32.4166547,-63.2503427
Alioli,fast food,Catamarca,+54 353 464 7949,,,,-32.4118597,-63.2494924
Santa Cecilia,ice cream,Avenida Elpidio Gonzáles,+54 353 461 0700,,,,-32.4160517,-63.2613912
CIC - Hugo R. Giovanetti,clinic,"Boulevard de la Estación, Las Peñas",,,,,-30.5615699,-63.9977029
Carnes Jege,butcher,,,,,,-31.2793617,-64.4629213
Casa fúnebre,funeral directors,,,,,,-31.2786128,-64.4636832
Kiosco El Cristal,kiosk,"Urquiza 368, Devoto",,,,,-31.403078,-62.3018609
Defensa Civil en estación de Bomberos,oficina: government,,,,,,-30.8608139,-64.5267023
Dispensario Municipal Carnerillo,clinic,"Avenida Rafael Faucher 173, Carnerillo",,,,,-32.9139378,-64.026593
Centro de Salud Municipal,clinic,"Güemes, Brinkmann",,,,,-30.866462,-62.0413645
Titán,supermarket,"Camino de los Siete Colores, Santa Rosa de Calamuchita",,,,,-32.0592735,-64.5494329
Rotiseria La Cumbre,fast food,,,,,,-30.7244956,-64.8029712
Binomio,clothes,San Martín,,,,,-30.7243542,-64.8032118
Peluquería Rivadavia,clothes,Rivadavia,,,,,-30.7257588,-64.8027242
"""New Center Sports"" Indumentaria Deportiva",sports,,,,,,-30.7253195,-64.8023787
Plena Modas,clothes,,,,,,-30.7254484,-64.8023052
Gulfstore Resto Bar,fast food,,,,,,-30.7261931,-64.803157
Zapatería,shoes,San Martín,,,,,-30.7244879,-64.8031153
Frigorifico Villa Maria,supermarket,"Bulevar Las Flores, Villa Giardino",,,,,-31.0514493,-64.4998394
Almacén Natural Pimienta Rosa,convenience,Coronel Juan Pascual Pringles 372,,,,,-31.4122256,-64.1678275
Coco Loco,fast food,Jacinto Ríos 1298,4220268,,,,-31.4011434,-64.1705326
La Molinera,bakery,"Buenos Aires 929, río cuarto",,,,,-33.1222263,-64.3580784
Casa Risso,supermarket,,,,,,-31.2455814,-62.926024
Carnes Fabio,butcher,Colombia 152,,,,,-32.4148802,-63.2529586
Martinez,butcher,Boulevard Italia,,,,,-32.412959,-63.2530453
Conrero,butcher,Muller,,,,,-32.4116778,-63.2581295
McDonald's,fast food,"Avenida General Paz, Villa Carlos Paz",,,,,-31.4218291,-64.4966092
Instituto Medico Privado,clinic,Belgrano 149,,,,,-31.420282,-64.4931788
Fabrica de alfajores,confectionery,"Avenida Libertad, Villa Carlos paz",,,,,-31.4225524,-64.4949916
Mecánica ledesma,tyres,Buenos Aires 365,+54 3521 42 1684,mecanicaledesma@hotmail.com,,,-30.4242966,-64.3542495
Bar y despensa San cayetano,convenience,Córdoba,,,,,-31.1156425,-63.6007756
Fundación EDUCO,oficina: educational institution,"Intendente de Buono 170, Río Tercero",,,,,-32.1705493,-64.1096366
Gailhou Del Arroyo,pharmacy,,,,,,-31.7684677,-65.001002
Sei Tu,ice cream,,,,,,-32.6874139,-62.1036075
el alquimista,books,,,,,,-31.0025859,-64.0856563
Electrónica Doble G,electronics,1275,+54 358 462 4998,gasserg@ciudad.com.ar,,,-33.1274405,-64.3593255
El Torito,butcher,,,,,,-34.3479933,-63.4476577
Germani,pharmacy,,,,,,-34.0105444,-63.9252029
Grafica Luma,oficina: company,"Emilio Genoud 702, General Levalle",,,,,-34.0078953,-63.9207919
Parador,restaurant,,,,,,-33.0938611,-64.3622516
Unidad Sanitaria,clinic,"Libertad 145, Santa Catalina",,,,,-33.2043918,-64.4364897
La Nona,restaurant,,,,,,-34.2991574,-63.270584
Villa,supermarket,,,,,,-34.2986655,-63.2687708
El Goñi,bar,,,,,,-34.2980463,-63.2686325
La Piazza,restaurant,,,,,,-34.1265018,-63.3894225
María Angélica,pharmacy,Avenida Quintana 64,,,,,-34.120391,-63.3876689
Centro Medico Privado,clinic,,,,,,-34.1237279,-63.3902848
Pérez,pharmacy,,,,,,-34.1237018,-63.3903885
Clínica Privada Laboulaye,clinic,,,,,,-34.1237192,-63.3893741
Top,supermarket,,,,,,-34.1392615,-63.3929855
San Agustin,pharmacy,,,,,,-34.1392054,-63.3932444
Farmacia Prá,pharmacy,,,,,,-34.1354365,-63.3918355
Ferrarese,pharmacy,,,,,,-34.1255698,-63.3921
Lider,pharmacy,,,,,,-31.4154908,-64.1886097
estacionamiento Alvear,car rental,Alvear 259,,,,,-31.4138534,-64.1802473
Cuates - Tacos y Lomos,fast food,Tomás Garzón 7704,+54 3543 42 3879,,,,-31.3474062,-64.2673777
Miguel Scheimberg SACIFI,hardware,,,,,,-31.4201751,-64.1791343
Fotocopiadora,copyshop,,,,,,-31.4352618,-64.1935936
Verónica,doctors,Los Almendros 354,+54 3547 47 9270,,,,-31.7155831,-64.4368375
Lo de Nedda,restaurant,Avenida Edén,+54 3548 42 7101,,,,-31.0934266,-64.4856424
