[
  {
    "nombre": "Walter",
    "rubro": "pharmacy",
    "direccion": "",
    "telefono": "",
    "email": "",
    "instagram": "",
    "facebook": "",
    "lat": -31.251133,
    "lon": -61.4900803
  },
  {
    "nombre": "Orange",
    "rubro": "perfumery",
    "direccion": "",
    "telefono": "",
    "email": "",
    "instagram": "",
    "facebook": "",
    "lat": -31.2522258,
    "lon": -61.4958117
  },
  {
    "nombre": "Amur",
    "rubro": "pharmacy",
    "direccion": "",
    "telefono": "",
    "email": "",
    "instagram": "",
    "facebook": "",
    "lat": -31.2526222,
    "lon": -61.4905256
  },
  {
    "nombre": "Ingaramo",
    "rubro": "pharmacy",
    "direccion": "",
    "telefono": "",
    "email": "",
    "instagram": "",
    "facebook": "",
    "lat": -31.2525208,
    "lon": -61.4938358
  },
  {
    "nombre": "Gerlero",
    "rubro": "perfumery",
    "direccion": "",
    "telefono": "",
    "email": "",
    "instagram": "",
    "facebook": "",
    "lat": -31.2525785,
    "lon": -61.4934838
  },
  {
    "nombre": "Libertad",
    "rubro": "supermarket",
    "direccion": "",
    "telefono": "",
    "email": "",
    "instagram": "",
    "facebook": "",
    "lat": -31.2419233,
    "lon": -61.5071348
  },
  {
    "nombre": "ProntoWash",
    "rubro": "car wash",
    "direccion": "",
    "telefono": "",
    "email": "",
    "instagram": "",
    "facebook": "",
    "lat": -31.2417124,
    "lon": -61.5060408
  },
  {
    "nombre": "Monutti",
    "rubro": "newsagent",
    "direccion": "Rivadavia, Rafaela",
    "telefono": "",
    "email": "",
    "instagram": "",
    "facebook": "",
    "lat": -31.2536213,
    "lon": -61.4922455
  },
  {
    "nombre": "Axion",
    "rubro": "fuel",
    "direccion": "Avenida Intendente Octavio Zobboli, Rafaela",
    "telefono": "",
    "email": "",
    "instagram": "",
    "facebook": "",
    "lat": -31.2592731,
    "lon": -61.5073371
  },
  {
    "nombre": "Tarjeta Naranja",
    "rubro": "money lender",
    "direccion": "Santa Fe, Rafaela",
    "telefono": "",
    "email": "",
    "instagram": "",
    "facebook": "",
    "lat": -31.2534263,
    "lon": -61.4860028
  },
  {
    "nombre": "Tres56 Resto-Bar",
    "rubro": "bar",
    "direccion": "Santa Fe 356, Rafaela",
    "telefono": "+54 3492 50 6356",
    "email": "",
    "instagram": "",
    "facebook": "",
    "lat": -31.2532508,
    "lon": -61.4891291
  },
  {
    "nombre": "Grido",
    "rubro": "ice cream",
    "direccion": "San Martin, Rafaela",
    "telefono": "",
    "email": "",
    "instagram": "",
    "facebook": "",
    "lat": -31.2515138,
    "lon": -61.4923901
  },
  {
    "nombre": "Nugui Automotores",
    "rubro": "car",
    "direccion": "Avenida Intendente Octavio Zobboli, Rafaela",
    "telefono": "+54 3492 563335",
    "email": "",
    "instagram": "",
    "facebook": "https://www.facebook.com/nuguiautomotores/",
    "lat": -31.2603766,
    "lon": -61.5061905
  },
  {
    "nombre": "Al Paso",
    "rubro": "fast food",
    "direccion": "Avenida General Bartolomé Mitre, Rafaela",
    "telefono": "",
    "email": "",
    "instagram": "",
    "facebook": "",
    "lat": -31.2529535,
    "lon": -61.4829325
  },
  {
    "nombre": "Grido",
    "rubro": "ice cream",
    "direccion": "Avenida General Bartolomé Mitre, Rafaela",
    "telefono": "",
    "email": "",
    "instagram": "",
    "facebook": "",
    "lat": -31.2526188,
    "lon": -61.4814841
  },
  {
    "nombre": "Parabrisas Rafaela",
    "rubro": "car parts",
    "direccion": "Avenida Intendente Octavio Zobboli, Rafaela",
    "telefono": "",
    "email": "",
    "instagram": "",
    "facebook": "",
    "lat": -31.2531426,
    "lon": -61.5051078
  },
  {
    "nombre": "Alpes",
    "rubro": "car",
    "direccion": "Avenida Intendente Octavio Zobboli, Rafaela",
    "telefono": "",
    "email": "",
    "instagram": "",
    "facebook": "",
    "lat": -31.2553323,
    "lon": -61.5055977
  },
  {
    "nombre": "Gomería Susana",
    "rubro": "car repair",
    "direccion": "Avenida Intendente Octavio Zobboli, Rafaela",
    "telefono": "",
    "email": "",
    "instagram": "",
    "facebook": "",
    "lat": -31.2525605,
    "lon": -61.5057517
  },
  {
    "nombre": "PomarSoft",
    "rubro": "oficina: web design",
    "direccion": "Tríunvirato 649, Rafaela",
    "telefono": "+54 9 3492 52 4268",
    "email": "pomarfacundo@gmail.com",
    "instagram": "",
    "facebook": "",
    "lat": -31.254492,
    "lon": -61.4786552
  },
  {
    "nombre": "ACA",
    "rubro": "fuel",
    "direccion": "Santa Fe 705, Rafaela",
    "telefono": "+54 3492 42 3714",
    "email": "",
    "instagram": "",
    "facebook": "",
    "lat": -31.2538504,
    "lon": -61.4836412
  },
  {
    "nombre": "Axion",
    "rubro": "fuel",
    "direccion": "",
    "telefono": "",
    "email": "",
    "instagram": "",
    "facebook": "",
    "lat": -31.2511021,
    "lon": -61.4915913
  },
  {
    "nombre": "YPF",
    "rubro": "fuel",
    "direccion": "",
    "telefono": "",
    "email": "",
    "instagram": "",
    "facebook": "",
    "lat": -31.2521193,
    "lon": -61.4940057
  },
  {
    "nombre": "Pido Pizza",
    "rubro": "fast food",
    "direccion": "San Martín 499, Rafaela",
    "telefono": "",
    "email": "",
    "instagram": "",
    "facebook": "",
    "lat": -31.2525513,
    "lon": -61.4862476
  },
  {
    "nombre": "Ribeiro",
    "rubro": "electronics",
    "direccion": "San Martín 101, Rafaela",
    "telefono": "",
    "email": "",
    "instagram": "",
    "facebook": "",
    "lat": -31.2518782,
    "lon": -61.4902224
  },
  {
    "nombre": "Cyrano",
    "rubro": "bar",
    "direccion": "Santa Fe 357, Rafaela",
    "telefono": "",
    "email": "",
    "instagram": "",
    "facebook": "",
    "lat": -31.2529214,
    "lon": -61.4890585
  },
  {
    "nombre": "Fabricca Matias",
    "rubro": "clothes",
    "direccion": "",
    "telefono": "",
    "email": "",
    "instagram": "",
    "facebook": "",
    "lat": -31.2475982,
    "lon": -61.4952826
  },
  {
    "nombre": "Karlen Maria Beatriz",
    "rubro": "clothes",
    "direccion": "Alvear 198",
    "telefono": "",
    "email": "",
    "instagram": "",
    "facebook": "",
    "lat": -31.2515794,
    "lon": -61.4891104
  },
  {
    "nombre": "David Raul y Maria Julia",
    "rubro": "clothes",
    "direccion": "Saavedra 155",
    "telefono": "",
    "email": "",
    "instagram": "",
    "facebook": "",
    "lat": -31.2651961,
    "lon": -61.4922648
  },
  {
    "nombre": "Corralon El Cedro",
    "rubro": "furniture",
    "direccion": "Avenida Intendente Octavio Zobboli 1179",
    "telefono": "+54 3492 44 0092",
    "email": "corralonelcedro@Wilnet.com.ar",
    "instagram": "",
    "facebook": "",
    "lat": -31.2399294,
    "lon": -61.5045118
  },
  {
    "nombre": "SOLAZ Rafaela * SONDer",
    "rubro": "clothes",
    "direccion": "Francisco Sáenz Díaz 333",
    "telefono": "",
    "email": "",
    "instagram": "",
    "facebook": "",
    "lat": -31.2594802,
    "lon": -61.4972959
  },
  {
    "nombre": "Taller Reparación de Amortiguadores Rojas y Coria",
    "rubro": "car repair",
    "direccion": "Avenida Aristóbulo del Valle",
    "telefono": "",
    "email": "",
    "instagram": "",
    "facebook": "",
    "lat": -31.2611517,
    "lon": -61.4721449
  },
  {
    "nombre": "white rabbit restobar",
    "rubro": "bar",
    "direccion": "",
    "telefono": "",
    "email": "",
    "instagram": "",
    "facebook": "",
    "lat": -31.2498964,
    "lon": -61.4920176
  },
  {
    "nombre": "Anís del Mono",
    "rubro": "bar",
    "direccion": "San Lorenzo",
    "telefono": "",
    "email": "",
    "instagram": "",
    "facebook": "",
    "lat": -31.2545807,
    "lon": -61.4877385
  },
  {
    "nombre": "Delegación Regional de Educación - Region III",
    "rubro": "oficina: government",
    "direccion": "",
    "telefono": "",
    "email": "",
    "instagram": "",
    "facebook": "",
    "lat": -31.2455657,
    "lon": -61.4760925
  },
  {
    "nombre": "Servicio Emergencias Rafaela",
    "rubro": "doctors",
    "direccion": "Pueyrredón 64",
    "telefono": "+54 3492 50 5005",
    "email": "",
    "instagram": "",
    "facebook": "",
    "lat": -31.2527906,
    "lon": -61.4883607
  },
  {
    "nombre": "Farmacia D'Agostino",
    "rubro": "pharmacy",
    "direccion": "Jorge Newbery 328",
    "telefono": "",
    "email": "",
    "instagram": "",
    "facebook": "",
    "lat": -31.2538011,
    "lon": -61.4672627
  },
  {
    "nombre": "Peretti",
    "rubro": "bicycle",
    "direccion": "Falucho",
    "telefono": "",
    "email": "",
    "instagram": "",
    "facebook": "",
    "lat": -31.2569584,
    "lon": -61.4944507
  },
  {
    "nombre": "DeMiga Sandwichería",
    "rubro": "fast food",
    "direccion": "Moreno 240, Rafaela",
    "telefono": "",
    "email": "",
    "instagram": "",
    "facebook": "",
    "lat": -31.251198,
    "lon": -61.4938181
  },
  {
    "nombre": "Lomitos 2x1",
    "rubro": "fast food",
    "direccion": "Bulevar Hipólito Yrigoyen 1305, Rafaela",
    "telefono": "+54 03492 33-2662",
    "email": "",
    "instagram": "",
    "facebook": "",
    "lat": -31.2651177,
    "lon": -61.4943552
  },
  {
    "nombre": "La Plaza",
    "rubro": "bakery",
    "direccion": "Bulevar Hipólito Yrigoyen 1341, Rafaela",
    "telefono": "",
    "email": "",
    "instagram": "",
    "facebook": "",
    "lat": -31.2652949,
    "lon": -61.4943715
  },
  {
    "nombre": "Centro de Salud 5 Martín Miguel de Güemes",
    "rubro": "clinic",
    "direccion": "Luis Maggi 2040, Rafaela",
    "telefono": "+54 3492 44-0199",
    "email": "",
    "instagram": "",
    "facebook": "",
    "lat": -31.2349784,
    "lon": -61.5090264
  },
  {
    "nombre": "Centro de Salud 11 Maria Ines Tarchini de Dellasanta",
    "rubro": "clinic",
    "direccion": "Gabriel Maggi 1800, Rafaela",
    "telefono": "+54 3492 57-7005",
    "email": "",
    "instagram": "",
    "facebook": "",
    "lat": -31.2376744,
    "lon": -61.464812
  },
  {
    "nombre": "Centro de Salud 6 Barrio Amancay",
    "rubro": "clinic",
    "direccion": "Martín Oliber 1206, Rafaela",
    "telefono": "+54 3492 43-1888",
    "email": "",
    "instagram": "",
    "facebook": "",
    "lat": -31.26107,
    "lon": -61.509567
  },
  {
    "nombre": "Centro de Salud 7 17 de Octubre",
    "rubro": "clinic",
    "direccion": "Monseñor Zaspe 1899, Rafaela",
    "telefono": "+54 3492 45-3124",
    "email": "",
    "instagram": "",
    "facebook": "",
    "lat": -31.2686774,
    "lon": -61.5074737
  },
  {
    "nombre": "Centro de Salud 10 Veronica Sereno",
    "rubro": "clinic",
    "direccion": "Julio Cortázar 2490, Rafaela",
    "telefono": "+54 3492 57-7033",
    "email": "",
    "instagram": "",
    "facebook": "",
    "lat": -31.2737416,
    "lon": -61.4706003
  },
  {
    "nombre": "Centro de Salud 4 Virgen de Fatima",
    "rubro": "clinic",
    "direccion": "Luis Braille 1095, Rafaela",
    "telefono": "+54 3492 42-6430",
    "email": "",
    "instagram": "",
    "facebook": "",
    "lat": -31.261525,
    "lon": -61.4805146
  },
  {
    "nombre": "Centro de Salud 3 Santa Rosa de Lima",
    "rubro": "clinic",
    "direccion": "Santa Rosa 727, Rafaela",
    "telefono": "+54 3492 42-4739",
    "email": "",
    "instagram": "",
    "facebook": "",
    "lat": -31.2503347,
    "lon": -61.4690959
  },
  {
    "nombre": "Centro de Salud 2 Materno Infantil",
    "rubro": "clinic",
    "direccion": "Ciudad de Esperanza 1550, Rafaela",
    "telefono": "+54 3492 44-1085",
    "email": "",
    "instagram": "",
    "facebook": "",
    "lat": -31.2390496,
    "lon": -61.4827322
  },
  {
    "nombre": "Centro de Salud 1 - Rafaela",
    "rubro": "clinic",
    "direccion": "Francia, Rafaela",
    "telefono": "+54 3492 45-2849",
    "email": "",
    "instagram": "",
    "facebook": "",
    "lat": -31.231695,
    "lon": -61.470885
  },
  {
    "nombre": "Centro de Salud Consultorio Periferico Movil",
    "rubro": "clinic",
    "direccion": "Lisandro de La Torre 687, Rafaela",
    "telefono": "",
    "email": "",
    "instagram": "",
    "facebook": "",
    "lat": -31.2448977,
    "lon": -61.5009937
  },
  {
    "nombre": "Vrai Frutas y verduras",
    "rubro": "greengrocer",
    "direccion": "Victor Manuel III, Rafaela",
    "telefono": "",
    "email": "",
    "instagram": "",
    "facebook": "",
    "lat": -31.2512927,
    "lon": -61.480331
  },
  {
    "nombre": "VRAI Verdulería Autoservicio",
    "rubro": "greengrocer",
    "direccion": "Victor Manuel III",
    "telefono": "",
    "email": "",
    "instagram": "",
    "facebook": "",
    "lat": -31.2512716,
    "lon": -61.4804162
  },
  {
    "nombre": "Flor del Norte",
    "rubro": "bar",
    "direccion": "Gaudencio Mainardi 298",
    "telefono": "",
    "email": "",
    "instagram": "",
    "facebook": "",
    "lat": -31.2411972,
    "lon": -61.4916978
  },
  {
    "nombre": "Cada de Reparacion de artefactos electronicos",
    "rubro": "electronics",
    "direccion": "Hermana Fortunata 583",
    "telefono": "",
    "email": "",
    "instagram": "",
    "facebook": "",
    "lat": -31.2449348,
    "lon": -61.507603
  },
  {
    "nombre": "El cuarto",
    "rubro": "restaurant",
    "direccion": "Belgrano 340, Rafaela",
    "telefono": "",
    "email": "",
    "instagram": "",
    "facebook": "",
    "lat": -31.2540965,
    "lon": -61.4886057
  },
  {
    "nombre": "Casa de Esteban",
    "rubro": "bar",
    "direccion": "Belgrano 349, Rafaela",
    "telefono": "",
    "email": "",
    "instagram": "",
    "facebook": "",
    "lat": -31.2540965,
    "lon": -61.4885952
  },
  {
    "nombre": "Tio pope Bar",
    "rubro": "bar",
    "direccion": "Italia 602, Rafaela",
    "telefono": "",
    "email": "",
    "instagram": "",
    "facebook": "",
    "lat": -31.250486,
    "lon": -61.4754167
  },
  {
    "nombre": "America Bar",
    "rubro": "bar",
    "direccion": "América 480, Rafaela",
    "telefono": "",
    "email": "",
    "instagram": "",
    "facebook": "",
    "lat": -31.2529778,
    "lon": -61.4695981
  },
  {
    "nombre": "El cuarto",
    "rubro": "restaurant",
    "direccion": "Belgrano 349, Rafaela",
    "telefono": "",
    "email": "",
    "instagram": "",
    "facebook": "",
    "lat": -31.2541395,
    "lon": -61.488531
  },
  {
    "nombre": "shelbys bar",
    "rubro": "bar",
    "direccion": "Italia 512, Rafaela",
    "telefono": "",
    "email": "",
    "instagram": "",
    "facebook": "",
    "lat": -31.2513687,
    "lon": -61.4749151
  },
  {
    "nombre": "República Bar",
    "rubro": "bar",
    "direccion": "Primera Junta 271",
    "telefono": "",
    "email": "",
    "instagram": "",
    "facebook": "",
    "lat": -31.2506112,
    "lon": -61.4832418
  },
  {
    "nombre": "Dionisio bar y restó",
    "rubro": "bar",
    "direccion": "Las Heras 470, Rafaela",
    "telefono": "",
    "email": "",
    "instagram": "",
    "facebook": "",
    "lat": -31.2562036,
    "lon": -61.4880116
  },
  {
    "nombre": "La flamenca bar",
    "rubro": "bar",
    "direccion": "Arenales 701, rafaela",
    "telefono": "",
    "email": "",
    "instagram": "",
    "facebook": "",
    "lat": -31.2452768,
    "lon": -61.4921539
  },
  {
    "nombre": "Irsh pub",
    "rubro": "bar",
    "direccion": "3 de Febrero 578, rafaela",
    "telefono": "",
    "email": "",
    "instagram": "",
    "facebook": "",
    "lat": -31.2465947,
    "lon": -61.4934557
  },
  {
    "nombre": "Pinta Bar",
    "rubro": "bar",
    "direccion": "9 de Julio 422, rafaela",
    "telefono": "",
    "email": "",
    "instagram": "",
    "facebook": "",
    "lat": -31.2571801,
    "lon": -61.491881
  },
  {
    "nombre": "Alquimia",
    "rubro": "bar",
    "direccion": "Bulevar Hipólito Yrigoyen, rafaela",
    "telefono": "",
    "email": "",
    "instagram": "",
    "facebook": "",
    "lat": -31.255579,
    "lon": -61.492672
  },
  {
    "nombre": "Artemio Bar",
    "rubro": "bar",
    "direccion": "Chacabuco 244",
    "telefono": "",
    "email": "",
    "instagram": "",
    "facebook": "",
    "lat": -31.2539492,
    "lon": -61.4948663
  },
  {
    "nombre": "Bar el pelado",
    "rubro": "bar",
    "direccion": "Roca, Rafaela",
    "telefono": "",
    "email": "",
    "instagram": "",
    "facebook": "",
    "lat": -31.2514036,
    "lon": -61.4984998
  },
  {
    "nombre": "La mula bar",
    "rubro": "bar",
    "direccion": "Lamadrid 356, Rafaela",
    "telefono": "",
    "email": "",
    "instagram": "",
    "facebook": "",
    "lat": -31.2484869,
    "lon": -61.4952579
  },
  {
    "nombre": "Fronda bar",
    "rubro": "bar",
    "direccion": "Sargento Cabral 152, Rafaela",
    "telefono": "",
    "email": "",
    "instagram": "",
    "facebook": "",
    "lat": -31.2545527,
    "lon": -61.489053
  },
  {
    "nombre": "Luck Beer Bar",
    "rubro": "bar",
    "direccion": "Santa Fe 1197, Rafaela",
    "telefono": "",
    "email": "",
    "instagram": "",
    "facebook": "",
    "lat": -31.2546805,
    "lon": -61.4795127
  },
  {
    "nombre": "Peñón del aguila",
    "rubro": "bar",
    "direccion": "San Martín 511, Rafaela",
    "telefono": "",
    "email": "",
    "instagram": "",
    "facebook": "",
    "lat": -31.2525048,
    "lon": -61.4863316
  },
  {
    "nombre": "Casa tomada",
    "rubro": "bar",
    "direccion": "Avenida Intendente Octavio Zobboli 1101",
    "telefono": "",
    "email": "",
    "instagram": "",
    "facebook": "",
    "lat": -31.2400037,
    "lon": -61.5044953
  },
  {
    "nombre": "Sudano",
    "rubro": "pharmacy",
    "direccion": "Colón 54, Rafaela",
    "telefono": "+54 3492 320295",
    "email": "",
    "instagram": "https://www.instagram.com/farmaciasudano/?hl=es",
    "facebook": "",
    "lat": -31.2530053,
    "lon": -61.4931049
  },
  {
    "nombre": "Pablo Culzoni",
    "rubro": "trade",
    "direccion": "Avenida Luis Fanti, Rafaela",
    "telefono": "",
    "email": "",
    "instagram": "",
    "facebook": "",
    "lat": -31.2597798,
    "lon": -61.505541
  },
  {
    "nombre": "Zanella",
    "rubro": "motorcycle",
    "direccion": "Avenida Luis Fanti, Rafaela",
    "telefono": "",
    "email": "",
    "instagram": "",
    "facebook": "",
    "lat": -31.2598442,
    "lon": -61.5052175
  },
  {
    "nombre": "Culzoni",
    "rubro": "trade",
    "direccion": "Avenida Luis Fanti, Rafaela",
    "telefono": "",
    "email": "",
    "instagram": "",
    "facebook": "",
    "lat": -31.2603171,
    "lon": -61.5043691
  },
  {
    "nombre": "Zbrun",
    "rubro": "car parts",
    "direccion": "Avenida Luis Fanti 999, Rafaela",
    "telefono": "+54 3492 423029",
    "email": "",
    "instagram": "",
    "facebook": "https://www.facebook.com/people/Zbrun-Repuestos-Para-Camiones/100063616986097/",
    "lat": -31.2599485,
    "lon": -61.5042617
  },
  {
    "nombre": "Grido",
    "rubro": "ice cream",
    "direccion": "Avenida Luis Fanti 583, Rafaela",
    "telefono": "",
    "email": "",
    "instagram": "",
    "facebook": "",
    "lat": -31.2610353,
    "lon": -61.5003192
  },
  {
    "nombre": "Instituto de Capacitación y Estudios para el Desarrollo Local",
    "rubro": "oficina: government",
    "direccion": "",
    "telefono": "",
    "email": "",
    "instagram": "",
    "facebook": "",
    "lat": -31.2526088,
    "lon": -61.4856718
  },
  {
    "nombre": "Rafaela Alimentos",
    "rubro": "butcher",
    "direccion": "Paraná, Rafaela",
    "telefono": "",
    "email": "",
    "instagram": "",
    "facebook": "",
    "lat": -31.2422348,
    "lon": -61.5023609
  },
  {
    "nombre": "YPF",
    "rubro": "fuel",
    "direccion": "Santa Fe, Rafaela",
    "telefono": "",
    "email": "",
    "instagram": "",
    "facebook": "",
    "lat": -31.2576471,
    "lon": -61.465063
  },
  {
    "nombre": "Axion",
    "rubro": "fuel",
    "direccion": "Hipólito Yrigoyen",
    "telefono": "",
    "email": "",
    "instagram": "",
    "facebook": "",
    "lat": -31.2611716,
    "lon": -61.4933367
  },
  {
    "nombre": "Shell",
    "rubro": "fuel",
    "direccion": "Avenida Intendente Octavio Zobboli, Rafaela",
    "telefono": "",
    "email": "",
    "instagram": "",
    "facebook": "",
    "lat": -31.2525781,
    "lon": -61.5050691
  },
  {
    "nombre": "MPF",
    "rubro": "fuel",
    "direccion": "Avenida Ernesto Salva, Rafaela",
    "telefono": "",
    "email": "",
    "instagram": "",
    "facebook": "",
    "lat": -31.2406652,
    "lon": -61.5040537
  },
  {
    "nombre": "Pochettino Comercial",
    "rubro": "motorcycle",
    "direccion": "Perú 10, Rafaela",
    "telefono": "+54 3492 43-2166",
    "email": "",
    "instagram": "",
    "facebook": "https://www.facebook.com/PochettinoComercial/",
    "lat": -31.2502013,
    "lon": -61.5050566
  },
  {
    "nombre": "Boffelli Motos",
    "rubro": "motorcycle",
    "direccion": "Roca 1204, Rafaela",
    "telefono": "+54 3492 50-2333",
    "email": "",
    "instagram": "",
    "facebook": "https://www.facebook.com/TracindaSA/",
    "lat": -31.2504207,
    "lon": -61.504421
  },
  {
    "nombre": "Mil Uno M1",
    "rubro": "restaurant",
    "direccion": "",
    "telefono": "",
    "email": "",
    "instagram": "",
    "facebook": "",
    "lat": -31.2500433,
    "lon": -61.4758581
  },
  {
    "nombre": "Secretaría de Educación",
    "rubro": "oficina: government",
    "direccion": "",
    "telefono": "",
    "email": "",
    "instagram": "",
    "facebook": "",
    "lat": -31.2521306,
    "lon": -61.4854622
  }
]